     3.04           OBSERVATION DATA    M                   RINEX VERSION / TYPE
sbf2rin-15.6.1                          20250107 131818 UTC PGM / RUN BY / DATE
ABPO                                                        MARKER NAME
33302M001                                                   MARKER NUMBER
GGN                 JPL                                     OBSERVER / AGENCY
3013358             SEPT POLARX5        5.5.0               REC # / TYPE / VERS
CR6200342009        ASH701945G_M    SCIT                    ANT # / TYPE
  4097216.5539  4429119.1897 -2065771.1988                  APPROX POSITION XYZ
        0.0083        0.0000        0.0000                  ANTENNA: DELTA H/E/N
G   17 C1C L1C S1C C1W S1W C2W L2W S2W C2L L2L S2L C5Q L5Q  SYS / # / OBS TYPES
       S5Q C1L L1L S1L                                      SYS / # / OBS TYPES
E   15 C1C L1C S1C C6C L6C S6C C5Q L5Q S5Q C7Q L7Q S7Q C8Q  SYS / # / OBS TYPES
       L8Q S8Q                                              SYS / # / OBS TYPES
R   12 C1C L1C S1C C1P L1P S1P C2P L2P S2P C2C L2C S2C      SYS / # / OBS TYPES
C   18 C1P L1P S1P C5P L5P S5P C2I L2I S2I C7I L7I S7I C6I  SYS / # / OBS TYPES
       L6I S6I C7D L7D S7D                                  SYS / # / OBS TYPES
J   15 C1C L1C S1C C2L L2L S2L C5Q L5Q S5Q C1L L1L S1L C1Z  SYS / # / OBS TYPES
       L1Z S1Z                                              SYS / # / OBS TYPES
SEPTENTRIO RECEIVERS OUTPUT ALIGNED CARRIER PHASES.         COMMENT
NO FURTHER PHASE SHIFT APPLIED IN THE RINEX ENCODER.        COMMENT
G L1C                                                       SYS / PHASE SHIFT
G L2W                                                       SYS / PHASE SHIFT
G L2L  0.00000                                              SYS / PHASE SHIFT
G L5Q  0.00000                                              SYS / PHASE SHIFT
G L1L  0.00000                                              SYS / PHASE SHIFT
E L1C  0.00000                                              SYS / PHASE SHIFT
E L6C  0.00000                                              SYS / PHASE SHIFT
E L5Q  0.00000                                              SYS / PHASE SHIFT
E L7Q  0.00000                                              SYS / PHASE SHIFT
E L8Q  0.00000                                              SYS / PHASE SHIFT
R L1C                                                       SYS / PHASE SHIFT
R L1P  0.00000                                              SYS / PHASE SHIFT
R L2P  0.00000                                              SYS / PHASE SHIFT
R L2C                                                       SYS / PHASE SHIFT
C L1P  0.00000                                              SYS / PHASE SHIFT
C L5P  0.00000                                              SYS / PHASE SHIFT
C L2I                                                       SYS / PHASE SHIFT
C L7I                                                       SYS / PHASE SHIFT
C L6I                                                       SYS / PHASE SHIFT
C L7D                                                       SYS / PHASE SHIFT
J L1C                                                       SYS / PHASE SHIFT
J L2L  0.00000                                              SYS / PHASE SHIFT
J L5Q  0.00000                                              SYS / PHASE SHIFT
J L1L  0.00000                                              SYS / PHASE SHIFT
J L1Z  0.00000                                              SYS / PHASE SHIFT
    30.000                                                  INTERVAL
  2025     1     1     0     0    0.0000000     GPS         TIME OF FIRST OBS
  2025     1     1    23    59   30.0000000     GPS         TIME OF LAST OBS
   142                                                      # OF SATELLITES
 C1C    0.000 C1P    0.000 C2C    0.000 C2P    0.000        GLONASS COD/PHS/BIS
DBHZ                                                        SIGNAL STRENGTH UNIT
 25 R01  1 R02 -4 R03  5 R04  6 R05  1 R06 -4 R07  5 R08  6 GLONASS SLOT / FRQ #
    R09 -2 R10 -7 R11  0 R12 -1 R13 -2 R14 -7 R15  0 R16 -1 GLONASS SLOT / FRQ #
    R17  4 R18 -3 R19  3 R20  2 R21  4 R22 -3 R23  3 R24  2 GLONASS SLOT / FRQ #
    R26 -6                                                  GLONASS SLOT / FRQ #
This data is provided as a public service by NASA/JPL.      COMMENT
No warranty is expressed or implied regarding suitability   COMMENT
for use.  For further information, contact:                 COMMENT
ggnops at jpl dot nasa dot gov                              COMMENT
                                                            END OF HEADER
> 2025 01 01 00 00  0.0000000  0 57
C02                                                                                                  37514460.543 6 195347624.25206        40.906    37514458.139 7 151055165.06907        45.406    37514459.249 5 158735937.91905        34.562
C03                                                                                                                                                  39724452.949 5 159953916.59905        30.438
C05                                                                                                  36420537.525 7 189651349.23107        46.469    36420537.294 8 146650482.02608        48.531    36420536.052 6 154107278.49806        38.188
C06                                                                                                  40129932.174 5 208967110.16505        35.344    40129936.048 6 161586916.19706        37.344    40129931.899 4                        27.594
C07                                                                                                  39491251.069 5 205641374.82105        32.938    39491249.828 6 159014991.41406        40.375    39491245.357 4 167100451.43604        28.594
C08                                                                                                                                                  40864959.799 6 164546258.17306        36.031
C09                                                                                                  39678228.657 6 206615162.13206        38.969    39678232.799 6 159768131.84106        41.906    39678226.271 5 167891704.94805        30.188
C10                                                                                                  38413440.294 6 200029088.97806        39.000    38413440.502 7 154675220.03107        42.344    38413435.011 5 162539917.91405        31.156
C13                                                                                                  40637753.052 4                        25.250    40637771.128 5 163631475.43805        31.125
C16                                                                                                  40817351.988 6 212546888.28506        39.188    40817363.612 5 164354872.34305        35.156    40817354.352 4                        25.188
C20  26118172.811 5 137251901.12505        35.969    26118177.819 5 102493296.30105        32.406    26118173.263 6 136004151.85606        39.000                                                    26118172.912 5 110514505.23805        30.906    26118178.872 6 105167040.09506        40.000
C23  26033433.043 5 136806869.13605        35.469    26033432.265 4 102161083.72204        26.938    26033431.943 6 135563163.23206        37.812                                                    26033429.397 4                        28.938    26033432.392 5 104826176.05905        34.812
C27  21467903.987 8 112814721.68308        49.438    21467904.251 7  84244831.66707        42.281    21467903.227 8 111789135.96608        52.344                                                    21467903.632 7  90837869.60007        43.188    21467906.091 8  86442526.22208        51.250
C28  23548859.743 7 123750316.84007        44.281    23548860.029 5  92411066.82305        35.625    23548859.081 7 122625303.50707        46.281                                                    23548860.233 6  99643068.57206        36.844    23548862.696 7  94821789.57507        44.906
C30  23261341.190 7 122239224.70507        46.062    23261344.611 6  91282555.71406        37.219    23261340.412 8 121127975.04108        48.781                                                    23261344.377 6  98426398.27006        38.812    23261347.283 7  93663879.25707        47.344
C32  27201218.249 5 142943374.63005        33.500    27201227.434 4                        26.656    27201218.084 6 141643892.04106        36.875                                                    27201222.464 4                        26.188    27201227.731 5 109528091.77705        35.719
C37  22837403.746 8 120011553.88508        49.219    22837407.529 6  89619158.09006        41.688    22837402.136 8 118920547.03208        50.906                                                    22837407.116 7  96632746.00707        42.094    22837409.548 8  91957056.83408        50.031
C38  40836216.188 4 214595780.36604        26.250                                                    40836217.051 5                        32.812
C39  41589412.275 6 218553832.72406        37.344    41589414.333 4 163205802.36104        29.375    41589411.753 6 216566973.29706        40.031                                                    41589411.666 5 175978412.45205        30.219    41589415.743 6 167463345.50406        38.094
C40  40748204.943 5 214133258.28105        32.094                                                    40748204.330 6 212186597.82606        36.000                                                                                                    40748207.574 5 164076138.98605        35.781
C47  25884523.107 6 136024091.54706        38.000                                                    25884522.382 6 134787506.45806        39.938                                                    25884525.716 5 109525902.12505        30.250    25884527.889 6 104226270.10406        38.906
C48  25711845.343 5 135116623.45605        33.188    25711869.289 5 100898853.11605        30.562    25711843.962 6 133888285.75306        36.969                                                    25711848.043 4 108795204.93304        29.656    25711871.415 6 103531000.77306        38.688
C49  26415963.742 5 138816940.32105        35.188    26415961.333 4 103662196.31704        28.250    26415962.553 6 137554971.72506        36.594                                                    26415963.289 4 111774727.65604        28.844    26415964.286 6 106366295.58106        37.594
C56                                                                                                  38186541.788 6 198847492.04106        40.250                                                    38186543.159 5 161579880.65905        30.344
C60                                                                                                  37356495.820 7 194525120.90207        47.531                                                    37356482.659 6 158067619.19806        38.875    37356487.389 8 150419139.73108        48.562
E04  26041142.517 7 136847175.18407        42.250    26041141.812 4 111077192.09604        29.781    26041145.192 6 102191117.24506        36.375    26041146.947 7 104856967.92707        46.156    26041144.404 7 103524035.66607        45.750
E05  25592940.206 6 134491808.88906        37.656                                                    25592942.911 4 100432206.50404        29.062    25592944.528 6 103052171.42106        38.875    25592942.780 6 101742192.53806        38.531
E06  24991416.995 7 131330804.88207        45.312    24991415.153 5 106599657.81205        32.781    24991420.250 6  98071728.66406        38.688    24991422.045 8 100630128.17808        48.688    24991419.780 8  99350929.49808        48.312
E09  25031598.896 7 131541967.43407        45.656    25031597.783 5 106771054.74905        33.812    25031601.548 6  98229409.76906        39.125    25031602.940 8 100791921.68708        48.781    25031601.157 8  99510659.30608        48.500
E10  26529126.757 6 139411523.83506        41.656                                                    26529130.505 5 104106044.33205        34.312    26529132.590 7 106821847.55107        44.750    26529130.821 7 105463947.50207        44.281
E12  25486172.766 7 133930802.55107        42.312                                                    25486172.743 5 100013291.34305        35.750    25486174.060 7 102622342.08207        44.625    25486172.272 7 101317788.29307        44.469
E14  27422410.215 6 144105882.92506        36.969    27422406.889 3                        20.969    27422409.621 4 107611616.12604        26.875    27422411.367 6 110418872.03006        36.125    27422409.476 6 109015237.15106        36.000
E23  26988301.206 6 141824683.83206        39.469    26988298.416 4 115117344.22304        27.812    26988302.172 5 105908081.68705        31.844    26988303.631 6 108671019.62006        41.406    26988301.620 6 107289485.72606        41.094
E24  26368060.783 6 138565240.50406        39.656                                                    26368061.995 5 103474078.24205        35.438    26368063.490 7 106173458.68507        44.719    26368061.287 7 104823769.04707        44.500
E26  28185954.245 5 148118252.28405        31.875                                                    28185953.865 4 110607815.86404        27.125    28185954.842 6 113493327.44106        36.031    28185953.681 6 112050517.22306        36.000
E31  24813140.605 7 130394096.12407        45.188    24813137.180 5 105839298.24305        32.312    24813142.403 6  97372348.64006        37.688    24813143.303 7  99912454.70807        46.844    24813141.865 7  98642392.25307        46.656
E33  25045820.730 7 131616815.75007        45.656    25045819.625 5                        33.031    25045821.020 6  98285259.23606        38.000    25045822.413 7 100849294.78907        47.188    25045820.563 7  99567321.58607        47.000
G04  22449657.924 7 117973773.49707        43.406    22449657.558 5        32.312    22449662.601 5  91927631.35705        32.312    22449662.547 7  91927628.35807        43.375    22449661.222 6  88097312.62406        37.094    22449657.873 7 117973748.50507        44.375
G08  21762355.130 7 114362035.34307        46.719    21762354.451 8        48.062    21762361.055 8  89113332.27908        48.062    21762361.972 7  89113345.28607        44.438    21762355.460 6  85400257.57306        40.750
G09  24117721.448 5 126739477.09805        35.031    24117720.943 4        28.688    24117727.547 4  98758056.57504        28.688    24117727.498 5  98758052.60105        33.969
G16  22035544.524 7 115797764.43507        45.438    22035543.563 5        34.969    22035546.156 5  90232087.71505        34.969
G18  24472643.654 5 128604668.75905        35.094    24472643.288 3        18.219    24472646.807 3 100211455.92503        18.219    24472647.357 6 100211457.91606        36.625    24472646.238 5  96035998.64005        31.406    24472643.461 5 128604665.77005        35.812
G21  24530332.260 6 128907763.96306        36.688    24530331.035 3        20.250    24530337.304 3 100447627.62003        20.250
G26  21937780.352 7 115284036.88107        46.250    21937779.758 7        46.812    21937785.579 7  89831853.08307        46.812    21937785.503 7  89831863.08907        43.219    21937779.430 6  86088875.15906        40.375
G27  20883346.601 8 109742873.44408        50.312    20883345.949 9        55.781    20883350.517 9  85513998.98309        55.781    20883351.054 8  85513994.99008        48.094    20883345.540 7  81950896.97007        44.500
G28  22817560.997 7 119907212.90507        43.281    22817560.622 5        30.562    22817564.637 5  93434279.65905        30.562    22817564.740 7  93434297.66807        42.000    22817565.164 6  89541183.57306        36.938    22817560.956 7 119907239.91407        43.531
G31  20724554.906 8 108908422.01908        48.906    20724554.509 8        51.625    20724556.971 8  84863795.35608        51.625    20724557.414 7  84863811.35907        46.531
J03  37586955.499 5 197520826.52605        34.688    37586958.512 5 153912365.53705        35.812    37586955.278 4 147499315.70104        29.500    37586955.654 5 197520823.52905        35.031    37586952.668 5 197520805.83305        35.188
J07                                                                                                                                                                                                  41570778.230 5 218455910.50405        32.438
R05  23640109.696 6 126369929.22506        38.156    23640109.853 6 126369894.23506        37.406    23640121.445 5  98287728.96305        35.844    23640120.967 5  98287738.96205        35.969
R06  23271859.386 4                        28.750
R14  24432326.795 5                        33.156    24432326.885 5                        32.719    24432338.028 5 101296254.21205        32.875    24432337.223 5                        31.531
R15  21372922.542 7 114210602.65507        46.406    21372922.484 7 114210644.64707        46.469    21372931.232 7  88830631.65107        43.094    21372930.874 7  88830650.65607        43.594
R16  21284166.018 7 113696285.84607        47.312    21284166.183 7 113696267.84707        46.625    21284173.771 7  88430501.63807        43.625    21284173.476 7  88430499.63007        44.250
R17  22321844.473 6 119448785.06706        39.844    22321844.482 6 119448797.07706        39.219    22321853.167 6  92904801.20306        39.188    22321852.689 6  92904788.19406        38.875
R18  19433697.447 8 103738522.99808        48.781    19433697.711 8 103738530.00208        48.531    19433706.344 8  80685612.18208        48.781    19433706.161 8  80685609.18508        48.406
R19  20134760.455 6 107707436.55306        37.875    20134760.249 6 107707393.54406        37.312    20134769.791 7  83772487.07407        45.281    20134770.193 7  83772535.07107        45.219
> 2025 01 01 00 00 30.0000000  0 57
C02                                                                                                  37514378.699 6 195347199.94906        41.062    37514376.957 7 151054836.97807        45.000    37514377.423 5 158735593.13605        34.156
C03                                                                                                                                                  39724324.368 5 159953402.07705        30.594
C05                                                                                                  36420471.775 7 189651006.35407        46.406    36420471.276 8 146650216.89408        48.188    36420470.208 6 154106999.87906        38.281
C06                                                                                                  40134693.849 6 208991904.13306        36.531    40134697.343 6 161606088.46906        36.969    40134693.682 4                        27.156
C07                                                                                                  39494500.920 5 205658299.80605        33.469    39494499.786 6 159028078.84606        39.844    39494495.856 4 167114204.36804        28.844
C08                                                                                                                                                  40853921.801 6 164501810.88406        36.969
C09                                                                                                  39682400.999 6 206636888.05406        39.500    39682404.819 6 159784931.69006        41.594    39682398.949 5 167909359.06205        30.000
C10                                                                                                  38417453.222 6 200049988.10606        39.312    38417453.613 7 154691380.57907        42.031    38417448.678 5 162556900.19605        31.000
C13                                                                                                  40627078.529 4                        27.594    40627089.245 4 163588481.82304        29.125
C16                                                                                                  40822439.564 6 212573376.74606        39.844    40822448.407 5 164375354.93005        34.781    40822441.856 4                        25.250
C20  26128117.472 6 137304159.61006        37.000    26128121.251 5 102532320.51905        31.844    26128117.548 6 136055935.29606        39.656                                                    26128116.813 5 110556583.49105        30.000    26128123.547 6 105207082.34306        40.750
C23  26043728.601 6 136860965.24406        36.656    26043726.365 4 102201480.09004        26.812    26043724.841 6 135616767.54306        36.438                                                    26043723.184 4                        28.531    26043726.444 5 104867626.20305        34.812
C27  21468449.861 8 112817590.47008        49.969    21468450.009 7  84246973.97107        42.438    21468449.186 8 111791978.67308        52.375                                                    21468449.703 7  90840179.54807        43.125    21468451.934 8  86444724.40408        51.500
C28  23562596.590 7 123822502.49407        45.000    23562596.747 5  92464971.69805        35.844    23562596.117 7 122696832.92307        46.938                                                    23562596.799 6  99701192.08806        36.625    23562599.204 7  94877100.68207        45.125
C30  23247341.874 7 122165657.68207        46.250    23247345.227 6  91227619.36406        37.688    23247341.006 8 121055076.81308        48.812                                                    23247344.966 6  98367162.53706        38.938    23247347.791 7  93607509.78207        47.750
C32  27208801.182 5 142983216.72205        33.938    27208808.167 4                        26.750    27208799.314 5 141683371.90205        35.094                                                    27208804.691 4                        25.469    27208809.627 5 109558620.25205        34.656
C37  22838317.465 8 120016354.75308        49.969    22838321.047 6  89622743.14306        41.906    22838315.998 8 118925304.25308        51.219                                                    22838320.768 7  96636611.63007        42.125    22838323.047 8  91960735.40408        50.250
C38  40825870.320 4 214541409.11804        27.469                                                    40825870.580 5                        32.125
C39  41594965.669 5 218583017.07105        30.031                                                    41594964.002 5 216595892.37205        33.000                                                    41594966.312 3                        22.906    41594969.589 5 167485707.61805        31.875
C40  40752636.196 5 214156543.33205        32.781                                                    40752635.329 5 212209671.16405        35.812                                                                                                    40752638.537 6 164093980.77506        36.062
C47  25866381.476 6 135928755.73706        38.938                                                    25866379.803 6 134693037.33306        39.094                                                    25866383.303 5 109449138.29005        30.656    25866385.860 6 104153220.65206        38.969
C48  25720186.910 5 135160455.63605        34.031    25720209.948 5 100931584.89705        30.562    25720185.564 6 133931719.47906        36.625                                                    25720188.742 5 108830498.33305        30.812    25720212.083 6 103564586.40406        38.438
C49  26433619.055 6 138909722.39906        36.031    26433617.651 4 103731481.67404        28.062    26433618.756 6 137646910.30506        36.531                                                    26433618.437 4 111849435.27304        28.562    26433619.849 6 106437388.35606        37.594
C56                                                                                                  38188834.492 6 198859431.95106        40.656                                                    38188836.171 5 161589582.79205        31.062
C60                                                                                                  37356256.455 7 194523874.43607        47.562                                                    37356243.029 6 158066606.35306        38.875    37356247.997 8 150418175.90608        48.719
E04  26055929.208 6 136924884.51106        40.844    26055929.768 5 111140267.81705        30.156    26055932.397 5 102249146.88405        35.531    26055934.183 7 104916511.38607        45.719    26055932.096 7 103582822.20807        45.281
E05  25586866.670 6 134459893.29606        38.125                                                    25586869.854 4 100408373.41304        29.250    25586871.739 6 103027716.64106        39.562    25586869.522 6 101718048.61706        39.125
E06  25002836.965 7 131390818.79507        44.469    25002835.441 5 106648370.37305        33.062    25002840.538 6  98116544.22206        38.688    25002842.293 8 100676112.83708        48.438    25002840.175 8  99396329.60308        48.125
E09  25038242.266 7 131576876.96107        46.062    25038241.139 5 106799390.39605        34.250    25038245.087 6  98255478.53406        39.219    25038246.198 8 100818670.50608        48.750    25038244.286 8  99537068.09808        48.500
E10  26513067.391 6 139327132.62506        41.250                                                    26513071.643 5 104043024.96105        34.594    26513073.094 7 106757184.23407        44.438    26513071.593 7 105400106.17407        44.156
E12  25472716.867 6 133860093.17406        41.562                                                    25472716.854 5  99960488.96105        35.562    25472718.278 7 102568162.22907        44.594    25472716.691 7 101264297.17107        44.500
E14  27450358.455 6 144252752.93706        37.281    27450354.660 3                        20.344    27450357.995 4 107721291.82404        26.688    27450360.059 6 110531408.81706        36.031    27450357.909 5 109126343.38305        35.781
E23  26993128.783 6 141850058.89406        38.562    26993127.858 4 115137940.88004        28.156    26993130.827 5 105927030.56305        32.094    26993132.645 6 108690462.82606        41.250    26993130.330 6 107308681.77506        41.000
E24  26363722.460 6 138542443.01206        39.531                                                    26363723.636 5 103457054.20905        35.125    26363724.953 7 106155990.52907        44.344    26363723.009 7 104806522.94707        44.188
E26  28196517.708 5 148173762.28005        32.531                                                    28196517.645 4 110649268.17504        28.188    28196517.849 6 113535861.13506        36.062    28196516.915 6 112092510.24006        36.219
E31  24813680.447 7 130396933.54207        44.719    24813677.196 5 105841601.36505        32.188    24813682.056 6  97374467.49806        37.656    24813683.633 7  99914628.81907        47.188    24813681.778 7  98644538.73607        46.906
E33  25045352.136 7 131614352.18807        45.438    25045350.549 5                        32.906    25045352.216 6  98283419.59606        37.969    25045353.649 7 100847407.16507        47.031    25045351.750 7  99565457.95707        46.875
G04  22450079.196 7 117975987.28807        43.312    22450078.834 5        32.312    22450083.828 5  91929356.33405        32.312    22450084.115 7  91929353.33007        43.500    22450082.499 6  88098965.75506        36.844    22450079.231 7 117975962.28107        44.625
G08  21755236.872 7 114324629.07207        47.000    21755236.193 8        48.000    21755242.859 8  89084184.59408        48.000    21755243.561 7  89084197.60307        44.438    21755237.380 6  85372324.39606        40.750
G09  24111123.387 5 126704803.47605        35.812    24111122.882 4        27.875    24111129.530 4  98731038.16504        27.875    24111131.087 5  98731034.16705        34.594    24111123.672 4  94617231.98914        27.562
G16  22034106.809 7 115790207.58307        45.812    22034105.853 5        35.375    22034108.324 5  90226199.27405        35.375
G18  24486377.386 5 128676839.90905        35.312    24486377.073 2        17.688    24486380.641 2 100267693.22302        17.688    24486381.445 6 100267695.22706        36.656    24486380.134 5  96089892.76905        31.094    24486377.778 6 128676836.92206        36.219
G21  24512524.561 6 128814182.54106        37.156    24512523.296 3        20.594    24512529.542 3 100374707.07203        20.594
G26  21939473.461 7 115292934.48407        46.094    21939472.862 7        46.500    21939478.375 7  89838786.27607        46.500    21939478.612 7  89838796.28707        43.594    21939472.669 6  86095519.47806        40.594
G27  20886476.585 8 109759322.39208        50.125    20886475.928 9        55.656    20886480.721 9  85526816.36409        55.656    20886481.361 8  85526812.37108        48.531    20886475.784 7  81963180.29207        44.719
G28  22833152.012 7 119989143.39007        43.594    22833151.641 5        30.406    22833155.205 5  93498121.53305        30.406    22833155.647 7  93498139.53507        42.031    22833156.317 6  89602365.35206        37.312    22833151.890 7 119989170.39707        44.188
G31  20731142.443 8 108943038.86208        48.969    20731142.046 8        51.562    20731144.303 8  84890769.49308        51.562    20731144.902 7  84890785.50007        47.000
J03  37586652.068 5 197519231.30705        35.094    37586654.626 6 153911122.53406        36.156    37586651.924 4 147498124.45204        29.969    37586652.286 6 197519228.29606        36.031    37586649.028 6 197519210.62506        36.000
J07                                                                                                                                                                                                  41570762.750 5 218455836.98005        32.656
R05  23657126.376 6 126460890.85706        37.188    23657126.224 6 126460855.84706        36.812    23657139.176 6  98358476.87006        37.125    23657139.037 6  98358486.87406        37.500
R06  23280216.348 4                        28.125
R14  24442693.520 5 130293302.68915        31.219    24442694.159 5 130293375.69615        31.281    24442703.536 5 101339228.64205        32.750    24442703.183 5 101339424.65215        32.500
R15  21374329.463 7 114218125.35907        46.156    21374329.754 7 114218167.35707        46.125    21374338.479 7  88836482.63707        43.219    21374338.475 7  88836501.63607        43.031
R16  21274097.610 7 113642505.22307        46.875    21274098.008 7 113642487.22207        46.438    21274106.276 7  88388672.27507        43.969    21274106.182 7  88388670.28607        43.969
R17  22342529.059 6 119559471.32106        40.000    22342528.617 6 119559483.32606        39.031    22342537.866 6  92990890.53006        38.562    22342537.579 6  92990877.52306        39.094
R18  19437241.585 8 103757440.42108        48.938    19437241.621 8 103757447.42408        48.625    19437250.312 8  80700325.75808        48.969    19437250.352 8  80700322.76008        48.594
R19  20119106.396 6 107623700.80006        37.250    20119106.289 6 107623657.81806        36.844    20119115.929 7  83707359.32307        45.125    20119116.224 7  83707407.32307        45.031
> 2025 01 01 00 01  0.0000000  0 57
C02                                                                                                  37514296.670 6 195346771.96306        40.656    37514294.674 7 151054506.03207        45.094    37514295.354 5 158735245.37005        33.938
C03                                                                                                                                                  39724196.688 5                        30.562
C05                                                                                                  36420405.235 7 189650660.46807        46.188    36420404.826 8 146649949.44608        48.500    36420403.812 6 154106718.84306        38.094
C06                                                                                                  40139471.870 6 209016785.01906        36.062    40139475.369 6 161625327.92706        37.531    40139471.426 4                        27.219
C07                                                                                                  39497737.742 5 205675161.03805        31.656    39497737.387 6 159041116.99106        39.625    39497734.298 4 167127905.41904        28.438
C08                                                                                                                                                  40842875.071 6 164457330.36906        36.594
C09                                                                                                  39686591.735 6 206658712.34506        39.062    39686596.244 7 159801807.60307        42.125    39686589.426 4 167927093.05804        29.844
C10                                                                                                  38421455.971 6 200070835.62806        38.750    38421456.783 6 154707501.20906        41.906    38421452.030 5 162573840.52905        30.875
C13                                                                                                  40616394.122 4                        28.094    40616399.812 4 163545440.65304        29.625
C16                                                                                                  40827541.067 6 212599944.99906        39.219    40827550.553 5 164395899.19705        35.219    40827544.106 4                        25.031
C20  26138045.170 6 137356326.38406        38.031    26138048.426 5 102571276.21605        31.312    26138043.552 6 136107627.80606        38.781                                                    26138044.386 5 110598587.88905        30.250    26138049.827 6 105247054.27806        40.062
C23  26054061.822 6 136915262.79506        37.375    26054059.009 4 102242026.78104        28.062    26054056.412 5 135670571.46205        34.688                                                    26054055.354 4                        28.875    26054059.812 5 104909230.73805        34.812
C27  21469086.105 8 112820933.49708        49.875    21469086.114 7  84249470.41107        42.219    21469085.448 8 111795291.30908        52.219                                                    21469085.858 7  90842871.35907        42.906    21469088.106 8  86447285.96608        51.312
C28  23576385.660 7 123894965.45707        44.594    23576385.906 6  92519083.66706        36.031    23576385.280 7 122768637.13207        46.656                                                    23576385.583 6  99759538.88506        36.250    23576388.372 7  94932624.24707        44.906
C30  23233400.856 7 122092397.59907        46.156    23233404.272 6  91172912.23206        37.750    23233400.028 8 120982482.72908        48.656                                                    23233403.769 6  98308173.95206        38.656    23233407.024 7  93551375.49507        47.625
C32  27216319.346 5 143022734.50105        31.531    27216327.382 4                        26.094    27216319.101 5 141722530.41905        34.281                                                    27216324.528 4                        24.688    27216330.063 5 109588900.28905        33.969
C37  22839274.668 8 120021384.73508        49.875    22839278.397 6  89626499.27306        41.750    22839273.040 8 118930288.50008        50.812                                                    22839277.734 6  96640661.72806        41.844    22839280.367 8  91964589.52908        50.156
C38  40815529.003 4 214487048.36904        28.938                                                    40815524.312 5                        30.625
C39  41600531.192 5 218612261.50705        32.156    41600531.076 3                        23.156    41600528.679 5 216624870.91605        33.094                                                    41600530.703 3                        23.844    41600534.155 5 167508115.62105        32.031
C40  40757050.567 5 214179742.00905        32.781                                                    40757049.883 5 212232658.95105        34.969                                                                                                    40757052.720 5 164111756.40705        35.969
C47  25848259.616 6 135833524.31706        38.875                                                    25848258.703 6 134598671.70206        40.156                                                    25848262.431 5 109372458.56605        30.500    25848262.605 6 104080251.26606        38.188
C48  25728532.977 5 135204317.28105        33.375    25728555.613 4 100964338.64404        28.531    25728531.582 5 133975182.37505        35.625                                                    25728535.855 5 108865815.49505        32.000    25728558.128 6 103598194.60506        37.750
C49  26451288.809 5 139002574.79305        35.531    26451286.587 4 103800819.52504        28.000    26451288.478 6 137738918.59906        37.406                                                    26451287.716 4 111924199.56904        28.219    26451288.771 6 106508535.03806        37.031
C56                                                                                                  38191112.040 6 198871292.97306        39.906                                                    38191114.099 5 161599220.86405        30.500
C60                                                                                                  37356016.792 7 194522627.01607        47.281                                                    37356003.559 6 158065592.74506        38.656    37356008.486 8 150417211.33908        48.688
E04  26070720.869 6 137002614.28806        40.625    26070721.786 5 111203360.11205        30.969    26070723.637 5 102307191.76405        35.438    26070725.254 7 104976070.50807        45.688    26070723.654 7 103641624.21407        45.250
E05  25580860.770 6 134428330.75906        38.125                                                    25580864.213 5 100384804.00305        30.656    25580865.588 6 103003532.37506        40.000    25580863.479 6 101694171.77206        39.750
E06  25014292.277 7 131451015.43407        44.562    25014290.516 5 106697231.24305        33.094    25014295.765 6  98161496.18406        38.969    25014297.135 8 100722237.49808        48.219    25014295.303 8  99441867.92108        48.062
E09  25044944.855 7 131612098.52907        46.188    25044943.747 5 106827979.28305        34.375    25044947.203 6  98281780.31906        39.031    25044948.703 8 100845658.42508        48.812    25044946.773 8  99563712.94608        48.500
E10  26497010.875 6 139242753.69706        41.031                                                    26497014.854 5 103980014.84205        34.750    26497016.082 7 106692530.33507        44.406    26497014.750 7 105336274.15807        44.156
E12  25459293.243 6 133789552.16606        41.500                                                    25459293.372 5  99907812.28005        35.469    25459294.506 7 102514111.38107        44.719    25459293.121 7 101210933.40907        44.562
E14  27478242.396 6 144399287.27006        36.031    27478239.285 3                        20.281    27478242.571 4 107830716.75804        26.344    27478244.434 6 110643688.35906        36.250    27478242.481 5 109237195.63605        35.812
E23  26997951.565 6 141875403.68406        37.969    26997950.359 4 115158512.94004        27.750    26997953.860 5 105945956.86105        31.781    26997955.780 6 108709882.84206        41.500    26997953.264 6 107327854.92206        41.094
E24  26359372.375 6 138519582.90306        39.312                                                    26359373.121 5 103439983.39605        34.688    26359374.174 7 106138474.37307        43.938    26359372.763 7 104789229.45807        43.812
E26  28207136.196 5 148229568.52305        30.844                                                    28207137.385 4 110690941.72604        28.031    28207137.611 6 113578621.81206        36.219    28207136.615 6 112134727.34106        36.250
E31  24814208.584 7 130399707.77507        44.719    24814204.739 5 105843853.15605        32.281    24814210.082 6  97376539.17706        37.469    24814211.953 7  99916754.53707        47.562    24814209.719 7  98646637.43007        47.125
E33  25044960.559 7 131612295.23707        45.094    25044958.932 5                        33.000    25044960.868 6  98281883.60306        37.906    25044962.310 7 100845831.09407        47.344    25044960.267 7  99563901.92207        47.094
G04  22450591.433 6 117978680.94906        41.781    22450591.080 5        31.469    22450596.302 5  91931455.25405        31.469    22450596.360 7  91931452.25507        43.750    22450595.098 6  88100977.19506        36.625    22450591.181 7 117978655.95907        43.000
G08  21748183.346 7 114287562.29407        46.750    21748182.667 7        47.250    21748188.976 7  89055301.44807        47.250    21748189.968 7  89055314.46007        44.000    21748183.515 6  85344644.72406        40.750
G09  24104610.660 6 126670573.76706        36.156    24104610.146 4        27.781    24104615.162 4  98704365.72004        27.781    24104614.965 5  98704361.71605        32.625    24104609.670 4  94591670.94504        27.375
G16  22032661.650 7 115782612.34407        46.219    22032660.689 6        36.094    22032663.313 6  90220280.91106        36.094
G18  24500187.901 6 128749412.79506        36.312    24500187.615 3        18.906    24500190.329 3 100324243.55103        18.906    24500191.147 6 100324245.55206        36.375    24500190.409 5  96144086.83205        31.438    24500187.998 6 128749409.79506        37.281
G21  24494708.980 6 128720558.43906        38.156    24494707.733 3        20.969    24494713.268 3 100301753.28203        20.969
G26  21941181.123 7 115301908.04007        46.062    21941180.520 7        46.562    21941185.903 7  89845778.65907        46.562    21941186.060 7  89845788.65707        43.656    21941180.085 6  86102220.50806        40.406
G27  20889668.294 8 109776094.67108        50.250    20889667.642 9        55.719    20889672.354 9  85539885.69109        55.719    20889672.765 8  85539881.69908        48.281    20889667.542 7  81975705.05807        44.781
G28  22848805.150 7 120071402.30607        43.438    22848804.793 5        30.375    22848808.382 5  93562219.34105        30.375    22848809.169 6  93562237.34706        41.969    22848809.437 6  89663792.40506        36.969    22848805.224 7 120071429.30807        43.844
G31  20737827.312 8 108978166.47808        49.438    20737826.915 8        51.906    20737829.149 8  84918141.63808        51.906    20737829.762 7  84918157.64307        47.250
J03  37586387.097 5 197517836.53605        34.969    37586389.636 5 153910035.72805        35.406    37586386.264 4 147497082.95204        29.812    37586386.572 5 197517833.52805        35.781    37586383.171 5 197517815.84005        35.938
J07                                                                                                                                                                                                  41570749.468 5 218455764.23205        32.219
R05  23674111.605 6 126551684.43606        37.250    23674111.417 6 126551649.41506        36.375    23674122.021 5  98429094.02705        35.531    23674121.990 5  98429104.01705        35.844
R06  23288645.427 4                        27.844
R14  24453111.442 3                        22.125                                                    24453116.786 5                        31.156    24453115.266 5                        31.656
R15  21375782.654 7 114225890.24907        46.594    21375783.057 7 114225932.25507        46.562    21375791.804 7  88842521.98707        43.125    21375791.576 7  88842540.98407        43.281
R16  21264029.733 7 113588720.83607        46.750    21264029.634 7 113588702.83607        46.625    21264037.178 7  88346839.96907        44.250    21264037.044 7  88346837.95907        44.156
R17  22363283.200 6 119670533.91906        39.688    22363283.616 6 119670545.92406        39.000    22363292.391 6  93077272.55206        38.812    22363292.489 6  93077259.54506        38.719
R18  19440936.660 8 103777165.47608        48.812    19440936.893 8 103777172.48008        48.844    19440945.409 8  80715667.49208        48.938    19440945.231 8  80715664.48508        48.531
R19  20103568.459 6 107540583.96906        37.781    20103569.233 6 107540540.96406        37.469    20103578.135 7  83642712.95307        45.281    20103578.430 7  83642760.94607        45.031
> 2025 01 01 00 01 30.0000000  0 57
C02                                                                                                  37514213.956 6 195346341.03006        40.812    37514211.861 7 151054172.82307        45.281    37514213.047 5 158734895.20205        34.312
C03                                                                                                                                                  39724067.836 5 159952370.01505        31.312
C05                                                                                                  36420338.485 7 189650312.44107        46.344    36420338.170 8 146649680.33808        48.625    36420336.967 6 154106436.04406        38.031
C06                                                                                                  40144267.898 6 209041753.47706        36.688    40144269.617 6 161644635.12806        36.500    40144265.879 4                        27.750
C07                                                                                                  39500963.729 5 205691959.32005        32.000    39500963.405 6 159054106.51806        39.906    39500959.547 4 167141555.44004        28.719
C08                                                                                                                                                  40831819.461 6 164412817.92606        36.500
C09                                                                                                  39690801.465 6 206680635.69706        38.938    39690806.538 7 159818760.10107        42.406    39690799.876 5 167944907.54405        30.094
C10                                                                                                  38425450.036 6 200091632.08406        38.781    38425450.807 7 154723582.36607        42.062    38425445.692 5 162590739.37105        31.344
C13                                                                                                  40605690.607 4                        27.281    40605701.699 5 163502353.25505        31.219
C16                                                                                                  40832658.716 6 212626593.58906        39.312    40832668.658 6 164416505.56206        36.031    40832661.397 4                        25.500
C20  26147953.975 6 137408400.00606        37.688    26147958.178 5 102610162.38405        32.719    26147954.113 6 136159228.04106        40.375                                                    26147953.383 5 110640517.36405        31.344    26147959.352 6 105286954.85906        41.094
C23  26064431.655 6 136969762.70706        36.188    26064431.477 4 102282724.65604        29.281    26064429.384 6 135724575.86806        36.156                                                    26064426.042 4                        28.812    26064431.801 5 104950990.26505        35.812
C27  21469812.549 8 112824751.15408        49.562    21469812.518 7  84252321.27807        42.312    21469811.919 8 111799074.25708        52.469                                                    21469812.221 7  90845945.33407        43.312    21469814.747 8  86450211.20208        51.531
C28  23590227.257 7 123967704.39607        44.000    23590227.771 5  92573401.72105        35.625    23590227.195 7 122840714.82007        46.625                                                    23590227.251 6  99818107.90906        36.188    23590229.920 7  94988359.31307        44.938
C30  23219519.117 7 122019446.93807        46.438    23219522.292 6  91118436.15506        38.031    23219517.941 8 120910195.24308        48.969                                                    23219521.789 6  98249434.50106        39.156    23219524.574 7  93495478.29107        47.438
C32  27223777.313 5 143061928.07405        33.125    27223786.873 4                        28.625    27223776.928 6 141761367.70706        36.562                                                    27223782.677 4                        25.969    27223787.506 6 109618931.90706        36.312
C37  22840275.893 8 120026645.95508        49.656    22840279.690 6  89630428.09506        41.750    22840274.234 8 118935501.89208        51.125                                                    22840278.825 7  96644898.02007        42.031    22840281.963 8  91968620.83508        50.469
C38  40805187.662 4 214432699.84104        29.531                                                    40805182.654 5                        31.531
C39  41606107.607 5 218641566.15805        35.719    41606109.436 4                        25.094    41606105.323 6 216653909.13206        36.094                                                    41606107.168 4                        26.969    41606109.939 5 167530569.80805        34.062
C40  40761447.256 5 214202855.01505        32.031                                                    40761449.282 5 212255561.84305        35.719                                                                                                    40761451.081 5 164129466.40105        35.844
C47  25830157.729 6 135738400.13606        38.219                                                    25830157.269 6 134504412.24706        39.656                                                    25830159.632 5 109295865.09805        30.219    25830161.005 6 104007363.97406        38.375
C48  25736884.070 5 135248207.00205        31.062    25736907.729 4 100997113.38004        28.312    25736884.370 5 134018673.03605        35.875                                                    25736887.784 5 108901155.20105        32.281    25736910.455 6 103631824.30906        38.812
C49  26468971.261 5 139095496.42405        35.125    26468969.379 4 103870209.16504        27.594    26468970.134 6 137830995.51406        37.719                                                    26468969.873 4 111999019.64004        28.562    26468971.183 6 106579734.77206        37.281
C56                                                                                                  38193374.821 6 198883075.88506        40.188                                                    38193376.805 5 161608795.45305        30.938
C60                                                                                                  37355777.339 7 194521379.48907        47.438                                                    37355763.775 6 158064579.04106        39.188    37355768.867 8 150416246.68808        48.531
E04  26085516.531 6 137080363.43506        41.594    26085515.888 4 111266468.11804        29.688    26085518.924 5 102365251.10705        35.000    26085520.764 7 105035644.45907        45.406    26085518.914 7 103700440.86207        44.938
E05  25574922.265 6 134397122.65206        38.531                                                    25574925.123 5 100361499.27705        30.594    25574926.426 6 102979619.68406        40.219    25574924.786 6 101670563.05606        39.969
E06  25025782.091 7 131511393.65807        44.812    25025780.231 5 106746239.52605        33.406    25025785.230 6  98206583.78506        38.688    25025786.533 7 100768501.29207        47.750    25025785.041 7  99487543.61207        47.594
E09  25051706.438 7 131647631.47407        46.094    25051705.428 5 106856820.95305        34.250    25051708.724 6  98308314.60806        38.625    25051710.183 8 100872884.92508        48.469    25051708.521 8  99590593.34108        48.188
E10  26480957.027 6 139158389.96706        41.594                                                    26480960.833 5 103917016.02605        34.594    26480962.440 7 106627888.07507        44.312    26480960.796 7 105272453.62507        44.031
E12  25445902.229 6 133719182.62506        41.312                                                    25445902.211 5  99855263.66605        35.344    25445903.653 7 102460191.92007        44.719    25445902.232 7 101157699.37007        44.531
E14  27506063.519 6 144545485.87506        36.719    27506060.542 3                        21.062    27506063.529 4 107939891.05904        27.625    27506065.024 5 110755710.67505        35.938    27506063.152 5 109347793.93505        35.875
E23  27002769.799 6 141900719.90806        39.031    27002767.859 4 115179061.77704        27.125    27002771.503 5 105964861.79005        31.625    27002773.298 6 108729280.95106        41.312    27002770.853 6 107347006.44506        40.938
E24  26355010.837 6 138496660.48606        40.312                                                    26355011.324 5 103422866.04305        34.656    26355012.627 7 106120910.47107        44.188    26355010.670 7 104771888.83407        43.938
E26  28217811.276 4 148285670.73904        29.781                                                    28217812.537 4 110732836.25004        26.969    28217813.827 6 113621609.22106        36.094    28217812.473 5 112177168.30805        35.938
E31  24814724.656 7 130402419.97407        44.812    24814721.101 5 105846054.60905        32.281    24814726.369 6  97378564.50906        37.750    24814728.150 7  99918832.72307        47.562    24814725.889 7  98648689.19207        47.156
E33  25044646.984 7 131610646.20407        45.438    25044645.013 5                        32.781    25044646.850 6  98280652.22106        37.688    25044648.789 7 100844567.58407        47.375    25044646.433 7  99562654.47907        47.000
G04  22451195.256 6 117981854.22506        41.562    22451194.894 5        30.969    22451200.166 5  91933927.92105        30.969    22451200.349 7  91933924.92007        43.656    22451198.980 6  88103346.80506        36.656    22451195.224 7 117981829.21807        42.656
G08  21741194.399 7 114250835.47907        46.062    21741193.720 7        46.844    21741200.056 7  89026683.21607        46.844    21741200.981 7  89026696.22507        44.125    21741194.724 6  85317218.92406        41.031
G09  24098180.048 5 126636789.19305        33.938    24098179.530 4        27.188    24098186.040 4  98678040.12404        27.188    24098187.113 5  98678036.13305        34.281    24098182.144 5  94566442.21305        30.125
G16  22031209.122 7 115774980.05507        46.000    22031208.166 5        35.875    22031210.901 5  90214333.67705        35.875
G18  24514075.037 6 128822386.26406        37.406    24514074.774 3        19.156    24514076.584 3 100381106.02303        19.156    24514077.881 6 100381108.04006        36.531    24514076.744 5  96198580.04805        30.688    24514075.447 6 128822383.25506        37.781
G21  24476885.090 6 128626894.78406        37.500    24476883.870 3        20.875    24476889.467 3 100228768.67103        20.875
G26  21942903.921 7 115310959.56207        46.531    21942903.327 7        46.750    21942908.647 7  89852831.79507        46.750    21942909.027 7  89852841.80407        43.438    21942902.636 6  86108979.75206        40.344
G27  20892921.487 8 109793189.40108        50.500    20892920.830 9        55.812    20892925.301 9  85553206.27509        55.812    20892925.864 8  85553202.28008        48.281    20892920.524 7  81988470.62307        44.781
G28  22864520.763 7 120153988.87107        43.125    22864520.415 5        30.344    22864523.880 5  93626572.44605        30.344    22864523.678 6  93626590.44206        41.062    22864525.202 6  89725464.10406        36.750    22864520.744 7 120154015.87007        43.719
G31  20744609.026 8 109013805.57508        49.188    20744608.629 8        51.844    20744611.235 8  84945912.34108        51.844    20744611.468 7  84945928.33707        46.906
J03  37586159.444 5 197516642.91705        34.594    37586162.431 6 153909105.65006        36.656    37586159.197 4 147496191.64804        29.688    37586159.027 5 197516639.89505        35.875    37586155.290 5 197516622.21005        35.188
J07                                                                                                                                                                                                  41570736.632 5 218455693.15605        32.000
R05  23691064.221 6 126642307.65906        36.594    23691064.181 5 126642272.65505        35.750    23691075.702 6  98499578.72806        36.000    23691075.111 6  98499588.72506        36.531
R06  23297150.746 4                        26.781
R14                                                                                                  24463577.823 5 101425771.02905        31.625    24463578.104 5 101425967.02205        32.781
R15  21377281.804 7 114233900.13807        46.750    21377282.032 7 114233942.14307        46.500    21377290.918 7  88848751.87007        43.375    21377290.775 7  88848770.87907        43.469
R16  21253961.242 7 113534936.18507        47.062    21253961.125 7 113534918.18407        46.750    21253969.505 7  88305007.45907        44.938    21253969.594 7  88305005.47007        45.031
R17  22384107.468 6 119781969.59506        39.500    22384107.651 6 119781981.59406        38.906    22384116.538 6  93163944.72706        38.344    22384116.319 6  93163931.73206        38.938
R18  19444783.010 8 103797697.78108        48.844    19444783.305 8 103797704.78108        48.906    19444791.718 8  80731637.06808        48.844    19444791.508 8  80731634.07908        48.406
R19  20088147.682 6 107458091.01306        38.125    20088147.490 6 107458048.01206        37.281    20088157.202 7  83578551.80007        45.625    20088157.595 7  83578599.79907        45.562
> 2025 01 01 00 02  0.0000000  0 57
C02                                                                                                  37514130.493 6 195345906.06406        40.781    37514128.277 7 151053836.50807        45.562    37514129.226 5 158734541.79605        34.719
C03                                                                                                                                                  39723939.321 5 159951852.53905        31.219
C05                                                                                                  36420270.883 7 189649961.13007        46.000    36420270.590 8 146649408.69208        48.688    36420269.441 6 154106150.58306        38.406
C06                                                                                                  40149079.788 6 209066807.95006        36.375    40149080.456 6 161664008.85606        36.406    40149077.390 4                        27.375
C07                                                                                                  39504177.422 5 205708693.37405        31.531    39504177.178 6 159067046.33406        40.156    39504173.109 4 167155153.23004        28.812
C08                                                                                                                                                  40820757.225 6 164368273.17106        37.062
C09                                                                                                  39695030.069 6 206702656.79506        38.562    39695035.665 7 159835788.19207        42.219    39695028.314 5 167962801.48605        30.938
C10                                                                                                  38429433.853 6 200112376.15506        38.719    38429434.423 7 154739623.01007        42.094    38429430.064 5 162607595.62005        31.312
C13                                                                                                  40594976.720 4                        28.281    40594989.032 5 163459219.17305        31.312
C16                                                                                                  40837791.642 6 212653320.97206        38.750    40837800.851 6 164437172.91406        36.281    40837794.162 4                        26.031
C20  26157844.269 6 137460377.17506        36.812    26157848.025 5 102648976.54805        31.750    26157844.819 6 136210732.73606        40.469                                                    26157844.504 5 110682369.11105        31.031    26157851.224 7 105326781.55107        42.156
C23  26074840.649 6 137024464.00006        36.125    26074841.530 4 102323572.89204        28.969    26074839.809 6 135778779.87006        36.562                                                    26074835.116 4                        28.812    26074841.957 6 104992904.10306        36.125
C27  21470629.081 8 112829041.70008        50.125    21470628.978 7  84255525.27607        42.281    21470628.272 8 111803325.79708        52.125                                                    21470628.838 7  90849400.08307        43.438    21470631.257 8  86453498.78508        51.469
C28  23604120.995 7 124040716.04607        44.312    23604121.156 5  92627923.42105        35.875    23604121.000 7 122913062.71807        46.281                                                    23604120.936 6  99876896.53006        36.344    23604123.479 7  95044303.30907        44.906
C30  23205696.030 7 121946806.02407        46.938    23205699.196 6  91064191.38606        38.219    23205694.711 8 120838214.71208        48.562                                                    23205698.698 6  98190944.46706        39.438    23205701.291 7  93439818.43207        47.188
C32  27231173.345 5 143100795.43005        35.094    27231184.475 4                        28.969    27231173.600 6 141799881.75306        37.906                                                    27231178.977 4                        27.469    27231183.793 6 109648713.57206        36.250
C37  22841321.206 8 120032138.51908        50.000    22841325.088 7  89634529.66207        42.000    22841319.449 8 118940944.52508        50.688                                                    22841324.205 7  96649320.58507        42.531    22841327.357 8  91972829.40108        50.625
C38  40794845.725 4 214378362.97004        28.938                                                    40794843.382 5                        31.125
C39  41611694.242 5 218670929.51805        34.094    41611696.465 4                        24.812    41611691.975 5 216683005.58705        34.094                                                    41611694.433 4                        25.938    41611697.983 5 167553069.07405        34.375
C40  40765829.607 5 214225880.83405        32.094                                                    40765830.725 6 212278378.32006        36.250                                                                                                    40765832.256 6 164147109.59406        36.219
C47  25812077.403 6 135643383.82806        39.406                                                    25812074.461 6 134410259.73706        37.719                                                    25812077.786 5 109219358.55605        30.438    25812080.410 6 103934559.36106        38.469
C48  25745241.657 5 135292121.25505        32.031    25745264.405 4 101029906.39904        29.281    25745240.490 5 134062188.10905        35.406                                                    25745244.571 5 108936514.71605        32.031    25745267.792 6 103665472.89506        39.875
C49  26486665.538 6 139188484.14606        36.531    26486663.732 4 103939647.99804        28.812    26486664.658 6 137923137.88806        37.969                                                    26486664.169 4 112073892.88604        29.406    26486666.408 6 106650985.15306        37.375
C56                                                                                                  38195622.093 6 198894779.44106        39.750                                                    38195623.978 5 161618305.56905        31.531
C60                                                                                                  37355537.512 7 194520130.68307        47.219                                                    37355523.953 6 158063564.27906        39.156    37355529.032 8 150415281.04808        48.625
E04  26100314.355 6 137158128.78006        41.344    26100315.009 5 111329589.26205        30.406    26100316.752 5 102423322.58005        34.594    26100319.044 7 105095230.83407        45.219    26100317.238 7 103759269.78207        44.750
E05  25569050.341 6 134366268.24606        37.938                                                    25569054.030 5 100338458.68905        30.750    25569055.118 6 102955978.01206        40.562    25569053.447 6 101647221.91906        40.250
E06  25037305.686 7 131571950.34707        44.938    25037303.620 5 106795392.62805        33.312    25037309.066 6  98251804.63406        38.750    25037309.820 7 100814901.81507        47.281    25037308.551 7  99533354.29907        47.281
E09  25058526.857 7 131683473.05007        46.094    25058525.958 5 106885913.09405        34.375    25058529.289 6  98335079.36706        38.469    25058530.883 8 100900347.90708        48.594    25058529.051 8  99617707.21308        48.219
E10  26464906.178 7 139074042.27807        42.062                                                    26464909.876 5 103854029.21005        34.781    26464911.618 7 106563258.10607        44.375    26464909.862 7 105208645.23407        44.094
E12  25432543.936 6 133648985.31506        41.469                                                    25432544.003 5  99802843.65305        35.406    25432545.561 7 102406404.42807        44.750    25432544.113 7 101104595.61607        44.531
E14  27533820.002 6 144691346.60106        37.344    27533816.743 3                        21.031    27533820.115 4 108048813.01904        27.062    27533820.904 5 110867474.08605        35.938    27533819.425 5 109458136.62905        35.875
E23  27007581.457 6 141926007.19506        38.875    27007579.722 4 115199587.12104        27.281    27007583.652 5 105983745.10805        31.750    27007585.117 6 108748656.88906        41.312    27007582.864 6 107366136.07606        40.906
E24  26350636.552 6 138473674.07706        40.875                                                    26350637.276 5 103405700.91805        34.969    26350638.642 7 106103297.56207        44.719    26350636.470 7 104754499.81707        44.344
E26  28228543.894 5 148342066.30905        31.219                                                    28228544.561 4 110774949.81404        27.406    28228546.047 6 113664821.46406        36.562    28228544.193 6 112219831.22306        36.250
E31  24815229.073 7 130405069.14507        45.469    24815225.169 5 105848204.88405        32.656    24815230.678 6  97380542.77206        37.688    24815232.008 7  99920862.60107        47.281    24815229.988 7  98650693.26807        46.969
E33  25044410.208 7 131609404.40407        45.344    25044409.094 5                        32.969    25044410.270 6  98279724.93806        37.438    25044412.392 7 100843616.10707        47.406    25044410.077 7  99561715.09907        46.938
G04  22451890.003 7 117985504.73507        42.875    22451889.628 5        31.562    22451894.613 5  91936772.44705        31.562    22451894.926 7  91936769.45007        43.219    22451893.700 6  88106072.78406        38.188    22451890.212 7 117985479.74107        43.656
G08  21734269.770 7 114214447.04807        45.344    21734269.091 7        46.594    21734275.842 7  88998328.63107        46.594    21734276.629 7  88998341.63507        44.500    21734270.363 7  85290045.77907        42.000
G09  24091835.885 5 126603448.82605        34.562    24091835.353 4        28.969    24091842.860 4  98652060.64304        28.969    24091843.397 6  98652056.65506        36.000    24091838.947 5  94541545.17105        32.281
G16  22029749.472 7 115767309.66307        45.938    22029748.516 5        35.750    22029751.144 5  90208356.76105        35.750
G18  24528037.106 6 128895757.15206        37.594    24528036.896 3        19.062    24528039.167 3 100438278.18003        19.062    24528040.182 6 100438280.19506        36.531    24528038.956 5  96253370.03005        31.406    24528037.266 6 128895754.15006        38.000
G21  24459053.556 6 128533192.35406        37.156    24459052.363 3        20.375    24459058.318 3 100155753.83103        20.375
G26  21944641.146 7 115320088.93807        46.281    21944640.552 7        46.281    21944645.792 7  89859945.59807        46.281    21944646.123 7  89859955.61907        43.406    21944640.233 6  86115797.16306        40.844
G27  20896235.272 8 109810603.60408        50.500    20896234.620 9        55.750    20896239.269 9  85566775.79709        55.750    20896239.623 8  85566771.79708        48.250    20896234.229 7  82001474.74507        45.000
G28  22880298.557 7 120236900.28907        43.406    22880298.218 5        30.281    22880301.566 5  93691178.69505        30.281    22880302.304 6  93691196.68706        41.969    22880302.611 6  89787378.40806        37.000    22880298.542 7 120236927.29107        43.562
G31  20751487.679 8 109049954.69108        48.562    20751487.282 8        51.281    20751490.093 8  84974080.46008        51.281    20751490.581 7  84974096.46807        46.750
J03  37585970.317 5 197515649.09605        34.719    37585974.600 6 153908331.27506        37.438    37585969.855 4 147495449.57004        29.531    37585970.642 5 197515646.08605        35.531    37585966.350 5 197515628.39705        35.594
J07                                                                                                                                                                                                  41570722.980 5 218455622.41705        32.188
R05  23707985.310 6 126732755.70906        37.438    23707985.073 6 126732720.70506        36.625    23707995.440 5  98569927.18905        35.500    23707995.632 5  98569937.21705        35.250
R06  23305717.190 4                        27.469
R14  24474070.596 4                        24.688                                                    24474085.572 5 101469339.93105        30.062    24474087.710 5 101469535.98005        30.750
R15  21378827.210 7 114242156.50607        46.625    21378827.205 7 114242198.51307        46.406    21378835.998 7  88855173.46407        43.344    21378836.007 7  88855192.47907        43.344
R16  21243892.484 7 113481151.87807        47.250    21243892.516 7 113481133.88507        46.656    21243900.761 7  88263175.22807        44.969    21243900.475 7  88263173.24407        44.594
R17  22405000.208 6 119893773.26506        39.562    22405001.040 6 119893785.26906        39.219    22405009.734 6  93250903.14206        38.406    22405009.922 6  93250890.17106        38.750
R18  19448780.184 8 103819035.14508        48.844    19448780.520 8 103819042.14508        48.906    19448788.844 8  80748232.82208        48.656    19448788.808 8  80748229.82608        48.531
R19  20072843.854 6 107376224.49206        37.844    20072843.648 6 107376181.51706        37.344    20072852.560 7  83514877.86907        45.188    20072852.989 7  83514925.87507        44.906
> 2025 01 01 00 02 30.0000000  0 57
C02                                                                                                  37514046.084 6 195345465.04506        40.844    37514043.627 7 151053495.48607        45.500    37514044.665 5 158734183.39005        34.344
C03                                                                                                                                                  39723810.151 5 159951331.97705        31.250
C05                                                                                                  36420202.357 7 189649604.44507        46.312    36420202.082 8 146649132.89208        48.625    36420200.906 6 154105860.76606        38.406
C06                                                                                                  40153906.907 6 209091946.19106        36.969    40153908.796 6 161683447.31706        36.938    40153905.823 4                        27.250
C07                                                                                                  39507378.112 5 205725360.82905        32.156    39507378.266 6 159079934.67406        40.594    39507374.086 4 167168696.92504        28.781
C08                                                                                                                                                  40809686.218 6 164323695.24606        37.094
C09                                                                                                  39699277.821 6 206724773.46806        39.000    39699282.451 7 159852890.18707        42.219    39699276.321 5 167980773.07005        30.281
C10                                                                                                  38433407.459 6 200133065.47606        39.469    38433407.269 7 154755621.29007        42.156    38433403.004 5 162624407.40105        31.281
C13                                                                                                  40584254.263 4                        28.844    40584263.078 5 163416037.42105        30.531
C16                                                                                                  40842937.967 6 212680124.82906        38.688    40842947.534 5 164457899.35605        35.531    40842940.814 4                        24.781
C20  26167716.464 6 137512253.76006        37.312    26167720.167 5 102687715.53305        32.344    26167715.556 6 136262137.69906        39.219                                                    26167716.744 5 110724139.85405        31.312    26167722.355 6 105366531.13806        41.344
C23  26085288.888 5 137079364.64205        34.844    26085288.669 5 102364570.02405        30.031    26085286.290 6 135833181.40206        36.812                                                    26085282.125 4                        27.906    26085290.026 6 105034970.72606        36.812
C27  21471535.164 8 112833802.54008        49.781    21471534.927 7  84259080.46907        42.250    21471534.354 8 111808043.36208        52.438                                                    21471534.572 7  90853233.50607        43.062    21471537.102 8  86457146.72308        51.438
C28  23618065.765 7 124113996.20307        43.906    23618065.909 5  92682645.62605        35.656    23618065.855 7 122985676.70007        46.469                                                    23618065.898 6  99935901.33706        36.250    23618068.272 7  95100453.04207        44.906
C30  23191931.457 7 121874474.40407        46.469    23191934.672 6  91010177.58806        37.906    23191930.697 8 120766540.64908        49.188                                                    23191934.259 6  98132703.46606        39.312    23191936.700 7  93384395.56207        46.906
C32  27238507.344 5 143139333.77005        34.094    27238517.722 4                        27.688    27238507.796 6 141838069.74306        37.688                                                    27238513.155 4                        26.250    27238517.631 5 109678243.13505        35.500
C37  22842410.035 8 120037861.63408        49.562    22842413.997 6  89638803.39106        41.656    22842408.622 8 118946615.60908        50.969                                                    22842413.356 7  96653928.79407        42.375    22842416.441 8  91977214.62908        50.625
C38  40784507.894 4 214324036.48804        29.406                                                    40784505.269 5                        31.031
C39  41617293.659 5 218700349.12105        35.844    41617295.680 4                        25.250    41617290.918 5 216712157.68005        35.969                                                    41617292.025 4                        26.188    41617295.964 5 167575611.35305        32.438
C40  40770196.166 5 214248817.15605        33.062                                                    40770194.534 5 212301106.15205        35.875                                                                                                    40770196.986 6 164164684.17006        36.000
C47  25794017.013 6 135548475.26406        39.688                                                    25794014.160 6 134316214.03506        39.344                                                    25794018.143 5 109142938.79705        30.469    25794019.662 6 103861837.34606        38.562
C48  25753601.035 5 135336055.79705        31.656    25753625.799 5 101062714.63105        30.281    25753601.380 5 134105723.22905        34.531                                                    25753604.660 5 108971890.59005        30.812    25753627.912 6 103699137.00406        39.531
C49  26504373.134 5 139281533.75405        35.812    26504370.769 4 104009133.20704        28.094    26504371.341 6 138015341.60906        36.594                                                    26504371.760 4 112148816.06204        28.688    26504373.069 6 106722282.96806        36.875
C56                                                                                                  38197853.689 6 198906401.53706        39.750                                                    38197855.946 5 161627749.47805        30.750
C60                                                                                                  37355296.968 7 194518878.58507        47.438                                                    37355283.622 6 158062546.86106        39.031    37355288.554 8 150414312.86008        48.719
E04  26115115.213 6 137235906.32406        41.750    26115114.404 5 111392720.33305        30.062    26115117.467 5 102481403.16305        34.469    26115119.504 7 105154826.56807        44.938    26115117.904 7 103818107.93507        44.531
E05  25563246.297 6 134335766.00806        37.531                                                    25563249.745 5 100315681.01905        31.500    25563251.312 6 102932606.17206        41.219    25563249.078 6 101624147.16806        40.812
E06  25048862.198 7 131632681.49007        44.531    25048860.781 5 106844687.37805        33.156    25048866.106 6  98297155.75206        39.156    25048867.124 7 100861436.00207        47.750    25048865.148 7  99579296.95607        47.719
E09  25065405.100 7 131719619.71207        45.750    25065404.407 5 106915252.88905        33.812    25065407.541 6  98362071.95206        38.125    25065409.502 8 100928044.65708        48.594    25065407.522 8  99645051.88208        48.125
E10  26448858.443 7 138989710.61307        42.031                                                    26448861.439 5 103791054.36405        34.312    26448863.851 7 106498640.41207        44.281    26448861.934 7 105144848.95807        43.938
E12  25419218.632 6 133578960.32406        41.438                                                    25419218.905 5  99750552.29805        35.688    25419220.244 7 102352748.94907        44.781    25419218.774 7 101051622.20207        44.656
E14  27561511.264 6 144836865.54906        36.938    27561509.414 3                        20.281    27561511.175 4 108157479.78604        27.469    27561512.116 5 110978975.62005        35.344    27561510.870 5 109568220.77905        35.438
E23  27012387.384 6 141951264.31806        38.062    27012386.969 4 115220088.01704        26.906    27012390.367 5 106002605.91705        32.125    27012391.523 6 108768009.73106        41.156    27012389.194 6 107385242.90006        40.969
E24  26346249.588 6 138450621.07306        40.656                                                    26346250.183 5 103388486.04805        34.938    26346251.383 7 106085633.61507        44.406    26346249.672 7 104737060.40607        44.188
E26  28239331.641 5 148398751.91005        32.688                                                    28239331.234 4 110817280.11204        27.500    28239333.114 6 113708255.93706        36.656    28239331.112 6 112262713.58806        36.406
E31  24815720.541 7 130407653.53607        45.094    24815717.027 5 105850302.61305        32.125    24815722.098 6  97382472.68806        37.500    24815723.249 7  99922842.84607        46.875    24815721.698 7  98652648.34107        46.656
E33  25044250.939 7 131608568.28207        45.000    25044249.616 5                        33.062    25044251.302 6  98279100.59306        37.562    25044253.052 7 100842975.47107        47.188    25044250.920 7  99561082.60907        46.875
G04  22452675.075 7 117989629.27407        43.156    22452674.700 5        32.281    22452679.747 5  91939986.31705        32.281    22452680.047 7  91939983.31407        43.688    22452678.866 6  88109152.77206        38.188    22452675.087 7 117989604.28107        44.500
G08  21727409.033 7 114178394.51707        45.406    21727408.354 7        46.781    21727415.320 7  88970235.78707        46.781    21727416.107 7  88970248.79907        44.625    21727409.845 7  85263123.48007        42.094
G09  24085575.365 5 126570550.86405        35.156    24085574.820 4        29.906    24085583.051 4  98626425.88604        29.906    24085581.978 6  98626421.88206        36.062    24085578.726 5  94516978.49505        32.094
G16  22028282.397 7 115759599.38807        46.188    22028281.432 5        35.375    22028283.823 5  90202348.76005        35.375
G18  24542073.983 6 128969521.40906        37.344    24542073.760 3        18.156    24542075.955 3 100495756.86903        18.156    24542076.630 5 100495758.89605        35.625    24542075.024 5  96308453.80805        30.500    24542073.901 6 128969518.41506        37.969
G21  24441215.924 6 128439451.84906        38.125    24441214.722 3        20.875    24441220.266 3 100082709.35603        20.875
G26  21946392.946 7 115329295.28907        46.375    21946392.347 7        46.031    21946397.198 7  89867119.38607        46.031    21946397.279 7  89867129.39207        42.719    21946391.925 6  86122672.05406        40.406
G27  20899608.979 8 109828333.52608        50.531    20899608.327 9        55.781    20899613.312 9  85580591.33209        55.781    20899613.638 8  85580587.33908        48.344    20899608.186 7  82014714.64207        44.969
G28  22896136.831 7 120320132.90507        43.094    22896136.496 5        30.406    22896140.829 5  93756035.21905        30.406    22896141.370 7  93756053.21107        42.062    22896141.458 6  89849532.59006        36.625    22896136.928 7 120320159.90407        43.812
G31  20758463.671 8 109086611.78108        49.062    20758463.274 8        51.156    20758465.558 8  85002644.40708        51.156    20758465.907 7  85002660.41207        46.500
J03  37585818.444 5 197514852.85705        34.156    37585822.710 6 153907710.86706        37.250    37585818.931 4 147494854.97404        29.688    37585818.443 5 197514849.87205        35.500    37585814.630 5 197514832.21305        35.094
J07                                                                                                                                                                                                  41570708.552 5 218455550.09205        32.031
R05  23724871.012 6 126823023.24806        36.781    23724871.392 6 126822988.26006        36.375    23724881.482 5  98640135.25705        34.906    23724881.098 5  98640145.26505        34.906
R06  23314360.731 4                        27.344
R14  24484635.178 5                        32.969                                                    24484639.694 5 101513106.01605        31.375    24484639.305 4 101513302.03204        28.938
R15  21380417.808 7 114250658.97907        46.375    21380418.059 7 114250700.97507        46.344    21380427.316 7  88861786.47607        43.188    21380426.909 7  88861805.48407        43.500
R16  21233823.953 7 113427368.16707        47.750    21233824.140 7 113427350.17707        46.844    21233832.238 7  88221343.47207        44.719    21233832.006 7  88221341.47707        44.656
R17  22425961.061 6 120005938.31506        40.000    22425961.719 6 120005950.32906        39.281    22425970.158 6  93338142.62906        37.656    22425969.416 6  93338129.64906        37.500
R18  19452927.778 8 103841174.13208        48.938    19452927.965 8 103841181.13508        48.750    19452936.071 8  80765452.05808        48.438    19452935.892 8  80765449.06908        48.250
R19  20057656.898 6 107294985.48506        37.938    20057656.899 6 107294942.49106        37.281    20057665.854 7  83451692.03007        45.062    20057665.711 7  83451740.03007        44.812
> 2025 01 01 00 03  0.0000000  0 57
C02                                                                                                  37513960.426 6 195345020.10806        40.938    37513958.094 7 151053151.45807        45.219    37513958.926 5 158733821.88005        34.281
C03                                                                                                                                                  39723680.363 5 159950810.27805        31.000
C05                                                                                                  36420133.297 7 189649244.68807        46.344    36420132.942 8 146648854.71408        48.500    36420131.954 6 154105568.43306        38.250
C06                                                                                                  40158750.685 6 209117169.98806        37.031    40158752.202 6 161702951.94406        36.781    40158749.315 4                        27.125
C07                                                                                                  39510566.339 5 205741963.81805        32.094    39510566.909 6 159092773.15706        40.312    39510562.107 4 167182188.20504        28.781
C08                                                                                                                                                  40798605.475 5 164279086.34905        35.344
C09                                                                                                  39703543.682 6 206746987.71106        39.125    39703548.183 6 159870067.61506        41.781    39703542.419 5 167998823.93605        30.188
C10                                                                                                  38437370.283 6 200153701.99506        39.156    38437370.061 6 154771578.77406        41.656    38437365.684 5 162641176.25905        30.906
C13                                                                                                  40573523.768 4                        29.781    40573528.461 5 163372810.30005        30.531
C16                                                                                                  40848100.357 6 212707006.97906        38.531    40848110.362 5 164478686.39205        35.562    40848103.190 4                        25.688
C20  26177569.326 6 137564029.81206        37.594    26177573.727 5 102726379.43905        33.344    26177569.260 6 136313443.03406        40.375                                                    26177568.788 5 110765829.68305        31.719    26177575.379 7 105406203.70907        42.031
C23  26095773.121 5 137134467.00805        34.594    26095774.570 5 102405717.76705        30.250    26095772.804 6 135887782.83406        37.750                                                    26095767.678 4                        27.500    26095776.146 6 105077191.91406        38.000
C27  21472530.753 8 112839035.34308        49.719    21472530.789 7  84262988.10807        42.500    21472530.118 8 111813228.59008        52.438                                                    21472530.362 7  90857446.94507        43.156    21472532.839 8  86461156.29708        51.531
C28  23632061.949 7 124187544.95307        43.594    23632061.730 5  92737568.40505        35.812    23632061.829 7 123058556.82707        46.469                                                    23632062.010 6  99995122.42606        36.094    23632064.330 7  95156808.58507        45.094
C30  23178226.498 7 121802455.84607        46.156    23178230.178 6  90956397.56706        38.156    23178225.925 8 120695176.80908        48.938                                                    23178229.429 6  98074714.55206        39.094    23178232.348 7  93329212.58207        47.250
C32  27245777.567 5 143177544.79305        31.781    27245786.269 4                        26.094    27245778.739 6 141875933.40006        36.594                                                    27245784.192 4                        25.875    27245788.708 5 109707521.86205        34.656
C37  22843543.677 8 120043818.80308        49.562    22843547.393 6  89643251.90406        41.812    22843542.259 8 118952518.63108        51.125                                                    22843547.266 7  96658725.46807        42.438    22843549.783 8  91981779.19708        50.594
C38  40774172.360 5 214269723.48605        30.062                                                    40774170.165 5                        30.562
C39  41622903.287 6 218729826.66906        36.688    41622904.079 4                        25.500    41622900.314 6 216741367.27506        36.969                                                    41622902.552 4                        26.875    41622905.279 5 167598198.03505        34.406
C40  40774544.153 5 214271665.92305        33.188                                                    40774542.440 5 212323747.19005        35.531                                                                                                    40774544.937 6 164182191.68606        36.344
C47  25775976.834 6 135453678.60606        39.031                                                    25775975.863 6 134222279.13706        40.094                                                    25775979.135 5 109066609.08305        30.531    25775980.149 6 103789201.04006        38.562
C48  25761967.370 5 135380010.55605        34.188    25761989.513 5 101095537.95405        30.875    25761964.374 5 134149278.44505        34.188                                                    25761968.366 4 109007282.70804        29.469    25761992.006 6 103732816.59906        39.125
C49  26522091.447 6 139374645.61306        36.094    26522089.578 4 104078664.85204        27.969    26522089.811 6 138107607.00106        37.312                                                    26522090.730 4 112223789.21804        28.406    26522091.700 6 106793628.46306        36.844
C56                                                                                                  38200070.094 6 198917944.32606        39.531                                                    38200073.003 5 161637128.93605        31.062
C60                                                                                                  37355056.274 7 194517625.40407        47.500                                                    37355042.933 6 158061528.57606        39.000    37355047.914 8 150413343.84008        48.750
E04  26129918.528 6 137313696.37106        41.812    26129918.824 5 111455861.57105        30.500    26129920.782 5 102539493.06705        34.875    26129922.350 7 105214431.87407        44.625    26129920.920 7 103876955.54307        44.438
E05  25557509.622 6 134305618.51606        38.094                                                    25557513.034 5 100293168.28505        31.812    25557514.552 6 102909506.14706        41.406    25557512.165 6 101601340.79506        41.094
E06  25060452.014 7 131693587.29907        44.688    25060450.932 5 106894123.87805        33.344    25060456.213 6  98342637.33306        39.062    25060457.605 8 100908104.05108        48.219    25060455.071 8  99625371.77408        48.031
E09  25072342.326 7 131756072.08707        46.500    25072340.927 5 106944840.83005        33.656    25072344.508 6  98389292.84706        38.562    25072346.174 8 100955975.65008        48.594    25072344.185 8  99672627.82208        48.281
E10  26432814.530 7 138905399.24907        42.281                                                    26432817.606 5 103728094.66005        34.562    26432819.831 7 106434038.27607        44.188    26432817.927 7 105081068.03607        43.969
E12  25405927.030 6 133509112.04406        41.875                                                    25405927.293 6  99698392.95206        36.094    25405928.601 7 102299228.89407        44.656    25405927.028 7 100998782.49507        44.656
E14  27589137.928 6 144982044.14806        37.312    27589134.553 3                        21.031    27589138.442 4 108265892.40504        27.469    27589139.021 5 111090216.36105        35.719    27589137.422 5 109678047.45305        35.750
E23  27017188.038 6 141976494.35106        37.875    27017187.233 4 115240566.86704        27.000    27017191.244 5 106021446.46905        32.438    27017192.780 6 108787341.78906        41.156    27017190.362 6 107404329.20806        41.062
E24  26341850.325 6 138427503.14906        40.781                                                    26341850.710 5 103371222.70905        35.250    26341851.928 7 106067919.91707        44.250    26341850.463 7 104719571.88807        44.250
E26  28250174.441 5 148455728.51905        33.438                                                    28250173.600 4 110859827.57704        27.375    28250175.610 6 113751913.38506        36.500    28250173.389 6 112305816.06706        36.344
E31  24816200.771 7 130410175.63007        45.531    24816196.707 5 105852349.78405        32.500    24816201.693 6  97384356.08106        37.500    24816203.613 7  99924775.35907        47.156    24816201.615 7  98654556.29507        46.875
E33  25044169.444 7 131608140.51807        45.312    25044168.604 5                        32.781    25044170.191 6  98278781.18806        37.938    25044171.204 7 100842647.72707        46.906    25044169.497 7  99560759.03407        46.844
G04  22453550.185 7 117994228.83707        43.062    22453549.819 5        32.875    22453555.238 5  91943570.35205        32.875    22453555.318 7  91943567.34807        44.219    22453554.298 6  88112587.47106        38.062    22453550.372 7 117994203.83907        44.031
G08  21720612.860 7 114142679.70007        46.344    21720612.181 8        48.094    21720618.816 8  88942406.08708        48.094    21720619.630 7  88942419.09207        44.844    21720613.503 6  85236453.35906        41.844
G09  24079399.764 5 126538097.72305        33.969    24079399.232 4        28.531    24079406.422 4  98601137.74604        28.531    24079407.424 5  98601133.76705        35.688    24079402.115 5  94492744.02105        31.250
G16  22026807.857 7 115751851.96007        46.094    22026806.901 5        35.750    22026809.614 5  90196311.81305        35.750
G18  24556184.739 6 129043679.28006        36.625    24556184.516 2        17.531    24556187.412 2 100553542.26202        17.531    24556187.976 5 100553544.30105        34.781    24556186.705 5  96363831.49705        30.062    24556185.122 6 129043676.28606        37.156
G21  24423370.931 6 128345677.12106        38.062    24423369.706 3        20.906    24423375.004 3 100009638.21803        20.906
G26  21948160.042 7 115338581.95907        46.469    21948159.439 7        46.562    21948164.589 7  89874355.74607        46.562    21948165.014 7  89874365.75407        43.094    21948158.807 6  86129606.89706        40.375
G27  20903042.984 8 109846379.59608        50.344    20903042.332 9        56.000    20903047.321 9  85594653.21809        56.000    20903047.769 8  85594649.22508        48.094    20903042.241 7  82028190.60707        45.062
G28  22912036.598 7 120403687.29007        43.156    22912036.281 5        31.062    22912041.297 5  93821142.48005        31.062    22912041.691 7  93821160.47407        42.906    22912041.010 6  89911927.03506        36.688    22912036.713 7 120403714.29207        43.688
G31  20765536.308 8 109123778.87508        49.250    20765535.911 8        51.656    20765538.360 8  85031605.75808        51.656    20765538.941 7  85031621.76307        46.625
J03  37585704.655 5 197514256.32005        34.000    37585709.113 6 153907246.06106        37.344    37585704.520 4 147494409.55604        29.438    37585704.891 5 197514253.32905        35.062    37585700.886 5 197514235.66005        35.312
J07                                                                                                                                                                                                  41570695.294 5 218455478.41305        33.031
R05  23741722.693 5 126913109.33005        35.469    23741722.492 5 126913074.33105        35.469    23741734.903 6  98710202.21306        36.344    23741734.979 6  98710212.22306        36.531
R06  23323073.389 4                        28.031
R14  24495236.407 5 130573411.93415        34.812    24495234.453 5 130573378.97215        33.375    24495245.047 5 101557071.35605        33.156    24495245.954 5 101557267.36605        30.375
R15  21382055.773 7 114259412.14907        46.688    21382055.956 7 114259454.15407        46.281    21382064.919 7  88868594.49407        43.625    21382064.574 7  88868613.50407        43.062
R16  21223756.537 7 113373589.34507        47.594    21223756.663 7 113373571.34807        47.094    21223764.130 7  88179515.48007        44.188    21223764.081 7  88179513.48907        44.062
R17  22446989.412 6 120118462.89906        39.625    22446989.386 6 120118474.89906        39.125    22446997.897 6  93425661.78306        38.125    22446998.134 6  93425648.79206        38.344
R18  19457225.602 8 103864115.69808        49.219    19457225.826 8 103864122.69508        48.906    19457233.801 8  80783295.52608        48.281    19457233.605 8  80783292.52808        48.250
R19  20042588.859 6 107214380.31906        38.875    20042588.595 6 107214337.32206        37.656    20042597.734 7  83388999.15107        45.219    20042598.186 7  83389047.15307        45.219
> 2025 01 01 00 03 30.0000000  0 57
C02                                                                                                  37513874.367 6 195344571.96006        40.844    37513871.999 7 151052804.91707        45.281    37513872.885 5 158733457.74605        34.188
C03                                                                                                                                                  39723552.074 5 159950287.91405        31.125
C05                                                                                                  36420063.752 7 189648882.49107        46.094    36420063.463 8 146648574.65308        48.625    36420062.105 6 154105274.12606        38.000
C06                                                                                                  40163611.117 6 209142479.78006        36.875    40163613.694 6 161722523.11206        36.938    40163609.832 4                        27.406
C07                                                                                                  39513743.411 5 205758502.78305        32.312    39513743.337 6 159105562.14706        40.562    39513738.490 4 167195627.47304        28.531
C08                                                                                                                                                  40787520.052 6 164234447.75006        36.406
C09                                                                                                  39707828.634 6 206769300.03006        38.812    39707833.282 7 159887320.90507        42.000    39707827.412 4 168016954.53304        29.812
C10                                                                                                  38441322.967 6 200174286.03506        38.781    38441322.933 6 154787495.66706        41.812    38441318.694 5 162657902.49805        30.781
C13                                                                                                  40562778.273 5                        30.094    40562782.926 5 163329538.72805        30.250
C16                                                                                                  40853277.787 6 212733967.83006        38.719    40853287.045 6 164499534.26506        36.031    40853280.947 4                        24.656
C20  26187402.663 6 137615703.85406        37.688    26187406.075 5 102764967.28105        32.406    26187401.818 6 136364647.34406        39.656                                                    26187402.765 5 110807437.36305        32.094    26187407.803 6 105445798.12606        41.062
C23  26106296.421 5 137189771.81105        33.719    26106297.700 4 102447016.68204        29.562    26106298.939 6 135942584.86906        38.531                                                    26106291.800 4                        27.344    26106300.161 6 105119568.23406        38.094
C27  21473616.385 8 112844740.20108        50.000    21473616.412 7  84267248.25007        42.406    21473615.482 8 111818881.59108        52.188                                                    21473616.007 7  90862040.49307        42.875    21473618.390 8  86465527.57108        51.250
C28  23646108.596 7 124261360.78907        43.656    23646108.561 5  92792690.62805        35.562    23646108.212 7 123131701.61207        46.000                                                    23646108.550 5 100054558.55305        35.781    23646111.228 7  95213368.77607        44.844
C30  23164581.782 7 121730752.55907        46.406    23164585.685 6  90902852.97906        38.344    23164581.124 8 120624125.39008        48.781                                                    23164584.548 6  98016979.49006        38.781    23164587.780 7  93274271.16607        47.438
C32  27252987.890 6 143215428.43006        36.125    27252995.478 4                        27.781    27252987.139 6 141913472.65506        38.688                                                    27252992.615 4                        26.188    27252997.332 5 109736549.77205        35.438
C37  22844722.318 8 120050011.97708        49.844    22844725.931 6  89647876.66406        41.750    22844720.807 8 118958655.50208        50.938                                                    22844725.724 7  96663712.16107        42.031    22844728.044 8  91986524.59908        50.219
C38  40763841.041 4 214215425.20804        29.875                                                    40763837.266 4                        28.062
C39  41628523.215 5 218759362.48305        33.281    41628523.967 4                        25.250    41628520.989 5 216770634.56705        33.906                                                    41628522.481 4                        26.750    41628525.740 5 167620829.39605        33.688
C40  40778875.185 5 214294427.61205        32.875                                                    40778873.857 5 212346301.93405        35.531                                                                                                    40778876.318 6 164199632.46406        36.344
C47  25757959.729 6 135358996.34706        38.969                                                    25757957.010 6 134128457.63606        38.438                                                    25757960.957 5 108990371.54605        30.312    25757962.973 6 103716652.39306        38.625
C48  25770334.842 5 135423983.98105        34.062    25770358.009 5 101128375.23205        30.250    25770333.371 5 134192852.05705        35.188                                                    25770336.799 4 109042689.78704        29.438    25770358.526 6 103766510.45606        37.500
C49  26539821.767 6 139467818.37106        36.656    26539819.362 4 104148242.00404        28.312    26539820.292 6 138199932.70006        36.625                                                    26539821.355 4 112298811.48104        27.812    26539821.993 6 106865020.60806        36.219
C56                                                                                                  38202272.030 6 198929408.39406        39.500                                                    38202274.367 5 161646444.42205        30.594
C60                                                                                                  37354815.573 7 194516371.83407        47.375                                                    37354802.004 6 158060509.95106        38.562    37354807.181 8 150412374.50908        48.500
E04  26144723.357 6 137391497.63806        41.250    26144722.888 4 111519011.93504        29.719    26144725.911 5 102597591.34605        34.781    26144727.192 7 105274045.76907        44.406    26144726.026 7 103935811.63007        44.250
E05  25551840.072 6 134275826.91206        37.000                                                    25551843.090 5 100270921.33805        30.469    25551844.979 6 102886678.84306        41.219    25551842.986 6 101578803.67106        40.719
E06  25072075.256 7 131754666.52807        44.688    25072073.544 5 106943701.14705        33.125    25072078.717 6  98388248.42506        38.625    25072080.575 8 100954904.99508        48.281    25072078.099 8  99671577.78608        48.000
E09  25079336.961 7 131792829.32107        46.156    25079335.329 5 106974676.20805        33.000    25079339.394 6  98416741.37806        38.875    25079340.934 8 100984140.24108        48.656    25079338.918 8  99700434.38608        48.375
E10  26416775.041 7 138821110.88107        42.250                                                    26416777.894 5 103665152.13505        34.625    26416780.190 7 106369453.76507        44.406    26416778.268 7 105017304.52507        44.188
E12  25392669.413 7 133439443.24307        42.000                                                    25392669.690 6  99646367.59006        36.312    25392671.181 7 102245846.36207        44.875    25392669.452 7 100946078.55207        44.875
E14  27616699.173 6 145126881.84006        36.812    27616694.724 3                        20.969    27616700.309 4 108374050.41504        26.812    27616700.955 5 111201195.90405        35.656    27616699.136 5 109787616.23505        35.562
E23  27021986.064 6 142001698.81506        39.344    27021984.870 4 115261025.14104        25.750    27021987.490 5 106040267.96405        32.000    27021989.178 6 108806654.30606        41.125    27021986.648 6 107423396.22306        40.906
E24  26337438.660 6 138404320.49206        40.375                                                    26337439.402 5 103353911.00905        35.500    26337440.665 7 106050156.62707        44.125    26337438.878 7 104702034.39907        44.156
E26  28261071.299 5 148512995.55105        33.469                                                    28261071.599 4 110902592.00104        27.406    28261073.037 6 113795793.37906        36.750    28261070.793 6 112349138.26406        36.500
E31  24816668.898 7 130412636.39907        45.156    24816665.424 5 105854347.14605        32.781    24816670.034 6  97386193.65506        37.375    24816672.321 7  99926660.88407        47.406    24816669.939 7  98656417.84707        47.062
E33  25044166.249 7 131608122.15007        45.688    25044164.582 5                        32.844    25044166.755 6  98278767.49506        38.219    25044167.441 7 100842633.67407        46.875    25044165.971 7  99560745.16007        46.875
G04  22454516.138 7 117999302.91807        43.281    22454515.767 5        32.875    22454520.990 5  91947524.14305        32.875    22454521.164 7  91947521.14307        44.750    22454520.095 6  88116376.48606        38.156    22454516.325 7 117999277.92007        44.125
G08  21713880.709 7 114107302.78807        46.938    21713880.030 8        48.500    21713886.880 8  88914839.70608        48.500    21713887.743 7  88914852.71207        45.344    21713881.084 6  85210035.59306        41.094
G09  24073309.340 5 126506090.35205        34.188    24073308.813 4        28.531    24073315.292 4  98576196.94504        28.531    24073315.909 6  98576192.95606        36.031    24073310.694 5  94468842.42705        31.375
G16  22025326.938 7 115744068.49207        46.438    22025325.986 5        35.375    22025328.565 5  90190246.78705        35.375
G18  24570370.995 6 129118229.39906        36.375    24570370.785 2        16.562    24570374.004 2 100611633.31402        16.562    24570374.916 5 100611635.35005        34.938    24570373.041 5  96419502.10505        30.406    24570371.552 6 129118226.39206        37.000
G21  24405519.415 6 128251871.13506        36.688    24405518.168 3        19.594    24405524.566 3  99936542.70603        19.594
G26  21949942.665 7 115347950.78707        46.250    21949942.066 7        46.281    21949947.901 7  89881656.13607        46.281    21949948.317 7  89881666.15607        43.844    21949941.613 6  86136603.09006        40.438
G27  20906537.009 8 109864740.69808        50.250    20906536.357 9        55.375    20906541.253 9  85608960.58409        55.375    20906541.642 8  85608956.58508        48.344    20906536.154 7  82041901.84507        45.156
G28  22927997.882 7 120487562.45507        43.250    22927997.565 5        30.812    22928002.707 5  93886499.71205        30.812    22928003.328 7  93886517.70507        43.469    22928001.834 6  89974561.03706        36.875    22927997.935 7 120487589.45207        43.625
G31  20772705.868 8 109161456.39808        48.844    20772705.471 8        51.094    20772708.443 8  85060964.84508        51.094    20772708.917 7  85060980.85107        46.781
J03  37585629.793 5 197513859.93605        33.375    37585633.898 6 153906937.20806        37.250    37585629.251 4 147494113.58504        28.656    37585629.287 5 197513856.92605        34.750    37585626.265 5 197513839.23305        34.625
J07                                                                                                                                                                                                  41570682.064 5 218455408.06105        32.719
R05  23758540.320 5 127003010.48205        35.219    23758540.494 5 127002975.51105        34.688    23758552.726 6  98780125.39506        36.219    23758552.829 6  98780135.40406        36.094
R06  23331854.826 4                        26.594
R14  24505890.032 5 130630196.06805        34.781    24505889.258 5 130630163.05005        34.094    24505896.248 4 101601236.79104        29.875    24505896.445 5 101601432.73605        31.219
R15  21383741.670 7 114268418.78207        47.219    21383741.890 7 114268460.78507        46.438    21383750.414 7  88875599.64707        43.188    21383750.427 7  88875618.64807        43.094
R16  21213690.420 7 113319818.43107        47.438    21213690.626 7 113319800.43007        47.062    21213698.429 7  88137693.66007        44.656    21213698.478 7  88137691.64907        44.812
R17  22468083.610 6 120231343.50806        39.438    22468083.623 6 120231355.51606        39.188    22468091.924 6  93513457.84006        37.812    22468091.817 6  93513444.81906        37.719
R18  19461673.483 8 103887859.17808        49.406    19461673.671 8 103887866.18608        49.062    19461681.709 8  80801762.70508        48.125    19461681.615 8  80801759.71008        48.344
R19  20027639.212 6 107134413.35406        38.250    20027639.144 6 107134370.35706        37.281    20027648.780 7  83326802.67407        45.625    20027649.348 7  83326850.67407        45.344
> 2025 01 01 00 04  0.0000000  0 58
C02                                                                                                  37513787.239 6 195344120.04206        40.812    37513785.117 7 151052455.47707        45.250    37513786.191 5 158733090.52405        34.062
C03                                                                                                                                                  39723420.440 5 159949764.32605        31.344
C05                                                                                                  36419993.617 7 189648517.20207        46.156    36419993.274 8 146648292.19808        48.562    36419992.090 6 154104977.30906        37.938
C06                                                                                                  40168487.768 6 209167874.61106        36.781    40168490.488 6 161742160.00006        37.438    40168486.509 4                        27.781
C07                                                                                                  39516907.864 5 205774976.98705        32.844    39516906.864 6 159118301.05906        40.531    39516901.423 4 167209014.08904        28.750
C08                                                                                                                                                  40776426.978 5 164189779.47205        35.781
C09                                                                                                  39712132.300 6 206791709.56506        38.812    39712137.154 7 159904649.36207        42.344    39712130.613 5 168035164.06205        30.094
C10                                                                                                  38445265.317 6 200194816.76406        38.719    38445266.405 6 154803371.32506        41.906    38445261.809 5 162674585.41805        30.969
C13                                                                                                  40552019.717 5                        30.438    40552024.302 4 163286223.04204        29.750
C16                                                                                                  40858469.705 6 212761006.34306        38.375    40858480.211 6 164520442.14106        36.219    40858472.655 4                        25.000
C20  26197215.399 6 137667273.14606        36.812    26197219.429 5 102803476.81405        33.406    26197215.395 6 136415747.81606        40.062                                                    26197215.568 5 110848960.71805        31.875    26197221.237 6 105485312.25806        41.312
C23  26116860.488 5 137245278.47505        34.906    26116860.645 4 102488466.39204        29.500    26116859.527 6 135997586.96706        37.125                                                    26116854.262 4                        27.875    26116862.556 6 105162099.22706        38.438
C27  21474791.565 8 112850915.83308        50.094    21474791.485 7  84271859.94407        42.656    21474790.488 8 111825001.08508        52.062                                                    21474791.260 7  90867013.08807        42.969    21474793.504 8  86470259.57108        51.312
C28  23660204.919 7 124335440.94607        43.000    23660205.621 6  92848010.23106        36.188    23660204.817 7 123205108.31607        45.500                                                    23660205.821 5 100114207.53705        35.531    23660208.387 7  95270131.50907        45.062
C30  23150997.004 7 121659365.44607        46.250    23151001.050 6  90849544.47906        38.781    23150996.704 8 120553387.25108        49.219                                                    23150999.814 6  97959499.01406        38.594    23151003.257 7  93219571.99607        47.531
C32  27260134.032 5 143252983.33005        32.000    27260140.570 4                        25.000    27260133.505 5 141950686.17005        34.375                                                    27260139.625 4                        24.062    27260143.080 5 109765325.84605        32.031
C37  22845945.980 8 120056441.73708        49.906    22845949.646 7  89652678.07407        42.219    22845944.196 8 118965026.80108        50.781                                                    22845949.028 7  96668889.34607        42.000    22845951.580 8  91991451.27008        50.219
C38  40753512.082 5 214161141.85805        31.156                                                    40753504.266 4                        26.000
C39  41634154.721 6 218788955.28306        36.719    41634155.258 4                        26.750    41634152.378 6 216799958.33806        36.469                                                    41634154.277 4                        27.812    41634156.744 5 167643504.39605        34.188
C40  40783189.247 5 214317101.21005        32.812                                                    40783188.688 5 212368769.41005        35.906                                                                                                    40783190.877 6 164217005.75306        36.375
C47  25739964.290 6 135264429.70306        39.281                                                    25739962.618 6 134034750.73606        40.406                                                    25739965.862 5 108914227.09105        30.969    25739968.075 6 103644192.34706        39.125
C48  25778705.127 5 135467973.07905        33.469    25778728.884 5 101161224.17705        30.438    25778704.434 5 134236441.22505        35.594                                                    25778707.647 5 109078109.50605        30.938    25778731.163 6 103800216.29306        37.906
C49  26557562.342 6 139561049.31006        36.656    26557560.182 4 104217862.46804        28.000    26557561.676 6 138292316.08706        37.625                                                    26557561.321 4 112373880.58204        27.969    26557563.256 6 106936457.35806        36.719
C56                                                                                                  38204458.816 6 198940793.03406        40.094                                                    38204460.800 5 161655695.41905        30.875
C60                                                                                                  37354574.657 7 194515117.22807        47.344                                                    37354561.151 6 158059490.47906        38.625    37354566.199 8 150411404.37908        48.469
E04  26159529.903 6 137469307.51006        40.844    26159529.980 4 111582169.24204        29.500    26159533.007 5 102655696.04005        35.156    26159534.091 7 105333666.26107        44.188    26159532.822 7 103994674.23007        44.188
E05  25546238.338 6 134246390.98606        36.219                                                    25546241.191 4 100248940.00104        29.344    25546243.760 6 102864124.06406        40.938    25546241.436 6 101556535.60406        40.312
E06  25083730.784 7 131815916.53307        44.750    25083729.063 5 106993417.00905        32.406    25083733.923 6  98433987.02406        38.156    25083735.991 8 101001836.77508        48.000    25083733.676 7  99717912.97207        47.688
E09  25086389.101 7 131829889.15907        45.656    25086387.577 5 107004757.20705        33.219    25086391.721 6  98444415.88206        38.906    25086393.011 8 101012536.69708        48.062    25086391.246 8  99728469.86408        48.000
E10  26400739.903 7 138736846.91107        42.125                                                    26400743.100 5 103602227.83605        34.656    26400745.423 7 106304887.94607        44.312    26400743.282 7 104953559.46107        44.062
E12  25379446.796 7 133369955.29707        42.281                                                    25379446.393 5  99594477.27005        35.875    25379447.920 7 102192602.38707        44.656    25379446.294 7 100893511.40507        44.656
E14  27644196.027 6 145271376.48206        36.844    27644192.196 3                        21.281    27644196.434 4 108481952.29304        27.031    27644197.170 5 111311912.57305        35.156    27644195.432 5 109896925.49605        35.219
E23  27026777.409 6 142026877.92806        39.500    27026774.897 4 115281462.63604        26.906    27026778.894 5 106059070.51605        31.719    27026780.479 6 108825947.34206        40.719    27026778.106 6 107442444.00706        40.656
E24  26333014.872 6 138381071.92606        40.219                                                    26333015.686 5 103336550.12005        35.500    26333016.887 7 106032342.82007        43.906    26333014.750 7 104684447.04907        44.000
E26  28272024.000 5 148570550.97905        33.594                                                    28272023.956 4 110945571.78604        27.094    28272025.572 6 113839894.34106        36.094    28272023.185 5 112392678.62705        35.906
E31  24817125.095 7 130415035.44907        44.719    24817122.390 5 105856294.46405        33.094    24817126.866 6  97387985.16706        37.625    24817129.015 7  99928499.12007        47.500    24817126.552 7  98658232.71607        47.156
E33  25044240.722 7 131608513.01507        45.938    25044239.247 5                        32.781    25044241.134 6  98279059.40906        38.281    25044241.789 7 100842933.20507        46.719    25044240.345 7  99561040.88207        46.812
G04  22455571.788 7 118004849.63007        42.844    22455571.431 5        32.469    22455576.407 5  91951846.19205        32.469    22455576.631 7  91951843.18607        44.094    22455575.668 6  88120518.43606        37.906    22455571.778 7 118004824.63307        44.094
G08  21707212.655 7 114072262.67907        46.906    21707211.976 8        48.688    21707218.915 8  88887535.77008        48.688    21707219.796 7  88887548.77707        45.094    21707213.092 6  85183869.33806        40.438
G09  24067302.536 5 126474528.21005        32.656    24067302.009 4        28.000    24067309.601 4  98551603.07204        28.000    24067310.111 5  98551599.09105        35.844    24067305.218 5  94445273.31305        30.031
G10  25793778.466 4                        26.375
G16  22023838.985 7 115736248.56107        46.438    22023838.038 5        35.406    22023840.277 5  90184153.34805        35.406
G18  24584631.909 6 129193169.06506        36.188    24584631.668 2        16.469    24584634.453 2 100670027.90002        16.469    24584635.566 5 100670029.93405        34.625    24584633.965 5  96475463.54905        30.375    24584631.957 6 129193166.05806        36.844
G21  24387663.021 6 128158035.10206        36.688    24387661.805 3        19.062    24387668.091 3  99863423.76603        19.062
G26  21951741.579 7 115357402.25007        46.438    21951740.976 7        46.406    21951746.104 7  89889020.91607        46.406    21951746.332 7  89889030.91807        42.938    21951740.455 6  86143661.00806        40.219
G27  20910090.543 8 109883414.40608        50.031    20910089.891 9        55.281    20910094.755 9  85623511.54009        55.281    20910095.216 8  85623507.54508        48.281    20910089.549 7  82055846.51007        44.688
G28  22944019.029 7 120571756.03607        42.812    22944018.703 5        30.812    22944024.578 5  93952105.03405        30.812    22944024.953 7  93952123.03707        43.719    22944023.499 6  90037432.79006        36.625    22944019.157 7 120571783.03907        43.625
G31  20779972.798 8 109199643.47708        48.875    20779972.401 8        51.094    20779974.998 8  85090720.98908        51.094    20779975.306 7  85090736.99107        46.438
J03  37585592.042 5 197513662.83205        33.969    37585596.620 6 153906783.66806        37.375    37585591.660 4 147493966.45204        29.344    37585591.660 5 197513659.86505        35.312    37585588.210 5 197513642.17805        34.719
J07                                                                                                                                                                                                  41570669.188 5 218455338.35105        33.688
R05  23775323.104 6 127092723.28106        36.562    23775323.265 6 127092688.29706        36.219    23775335.725 6  98849902.02806        37.281    23775335.295 6  98849912.02306        37.250
R06  23340703.078 4                        27.531
R14  24516592.049 6 130687237.78706        36.219    24516591.477 5 130687204.75905        34.406    24516598.189 5 101645602.55805        30.750    24516598.551 4 101645798.53904        29.906
R15  21385474.954 7 114277680.47507        47.188    21385475.339 7 114277722.47307        46.562    21385483.572 7  88882803.16207        43.219    21385483.335 7  88882822.15607        43.281
R16  21203626.075 7 113266056.83607        47.531    21203626.043 7 113266038.83307        46.969    21203634.561 7  88095879.10207        44.688    21203634.642 7  88095877.09907        45.000
R17  22489243.348 6 120344575.47006        39.906    22489243.938 6 120344587.49306        39.438    22489252.266 6  93601527.16606        37.969    22489252.753 6  93601514.15206        37.562
R18  19466271.387 8 103912402.57008        49.312    19466271.543 8 103912409.56808        49.250    19466279.412 8  80820852.03508        48.156    19466279.286 8  80820849.04408        48.344
R19  20012810.263 6 107055087.25006        38.156    20012810.343 6 107055044.24906        37.281    20012819.188 7  83265104.61407        45.219    20012819.590 7  83265152.60807        45.000
> 2025 01 01 00 04 30.0000000  0 58
C02                                                                                                  37513699.600 6 195343662.55006        41.000    37513697.290 7 151052101.73307        45.438    37513698.449 5 158732718.78105        34.344
C03                                                                                                                                                  39723289.962 5 159949238.18305        31.344
C05                                                                                                  36419922.545 7 189648147.10707        46.312    36419922.158 8 146648006.01108        48.688    36419921.121 6 154104676.57406        38.156
C06                                                                                                  40173380.711 6 209193352.38606        37.062    40173382.340 6 161761861.04906        37.000    40173379.797 4                        27.812
C07                                                                                                  39520060.089 5 205791384.36405        34.188    39520057.605 6 159130988.30006        40.375    39520053.242 4 167222346.45404        29.250
C08                                                                                                                                                  40765326.246 6 164145080.70206        36.281
C09                                                                                                  39716453.927 6 206814214.38706        38.594    39716459.058 7 159922051.47907        42.562    39716453.116 5 168053451.05605        30.562
C10                                                                                                  38449197.192 6 200215292.06506        38.812    38449198.777 7 154819204.14507        42.250    38449193.639 5 162691223.26905        31.406
C13                                                                                                  40541251.508 5                        32.000    40541254.913 5 163242862.25305        30.062
C16                                                                                                  40863678.224 6 212788120.39406        39.312    40863688.180 6 164541408.46506        36.812    40863680.083 4                        25.844
C20  26207009.330 6 137718733.79606        38.656    26207012.684 5 102841905.22205        32.812    26207006.607 6 136466740.63306        38.438                                                    26207008.019 5 110890396.56005        32.406    26207014.783 6 105524743.19306        41.500
C23  26127460.626 5 137300985.29405        35.344    26127460.425 4 102530065.46604        28.844    26127458.824 6 136052787.35306        36.688                                                    26127455.764 4                        28.438    26127463.454 6 105204783.58306        38.594
C27  21476055.894 8 112857559.86708        50.031    21476055.608 7  84276821.41807        42.250    21476054.929 8 111831584.71008        52.250                                                    21476055.490 7  90872362.84607        43.188    21476057.788 8  86475350.47008        51.219
C28  23674351.411 7 124409781.47207        42.500    23674352.351 6  92903524.28706        36.062    23674351.036 7 123278773.01607        45.094                                                    23674351.835 5 100174066.16005        35.875    23674355.072 7  95327093.74207        45.000
C30  23137472.747 7 121588294.20007        46.531    23137476.775 6  90796471.84806        38.375    23137472.398 8 120482962.09608        49.562                                                    23137476.036 6  97902272.86006        39.531    23137478.647 7  93165114.86707        47.344
C32  27267217.739 5 143290207.33705        34.781    27267224.648 4                        26.188    27267215.794 6 141987571.79806        36.375                                                    27267222.334 4                        25.438    27267226.711 5 109793848.23405        34.250
C37  22847214.208 8 120063107.55908        49.656    22847218.335 7  89657655.78007        42.094    22847212.392 8 118971632.02708        50.594                                                    22847217.292 7  96674256.62607        42.062    22847220.180 8  91996558.82508        50.125
C38  40743183.702 4 214106872.37804        29.719                                                    40743176.230 4                        26.938
C39  41639796.084 5 218818603.07805        34.969    41639796.648 4                        26.000    41639794.296 5 216829336.59305        35.031                                                    41639795.895 4                        28.250    41639798.908 5 167666221.54505        35.344
C40  40787486.315 5 214339684.70405        32.469                                                    40787485.895 5 212391147.59205        35.562                                                                                                    40787488.388 6 164234310.02106        36.281
C47  25721989.776 6 135169978.83306        38.031                                                    25721990.831 6 133941158.48006        41.125                                                    25721993.038 5 108838175.78005        31.406    25721994.383 6 103571820.99406        39.188
C48  25787079.161 5 135511973.82505        34.312    25787101.318 4 101194081.81104        29.656    25787077.520 6 134280041.96806        36.156                                                    25787080.581 5 109113538.66505        31.375    25787103.708 6 103833931.09806        38.031
C49  26575314.379 5 139654334.67105        35.875    26575311.813 4 104287523.72904        27.562    26575312.899 6 138384753.41806        37.312                                                    26575313.765 4 112448993.52204        27.562    26575315.227 5 107007935.80805        35.969
C56                                                                                                  38206629.552 6 198952096.41106        40.562                                                    38206631.227 5 161664880.31305        31.312
C60                                                                                                  37354333.386 7 194513859.82707        47.562                                                    37354319.630 6 158058468.75406        39.125    37354324.753 8 150410432.09808        48.500
E04  26174337.994 6 137547122.27206        41.594    26174337.655 4 111645330.55404        29.781    26174341.183 6 102713804.41006        36.250    26174342.177 7 105393290.50907        44.375    26174340.542 7 104053540.54107        44.562
E05  25540704.531 5 134217309.34905        35.688                                                    25540707.603 4 100227223.22104        29.344    25540710.310 6 102841840.72506        41.188    25540707.105 6 101534535.55106        40.344
E06  25095417.812 7 131877333.54907        44.688    25095416.368 5 107043268.44905        32.156    25095421.354 6  98479850.30606        38.250    25095423.113 7 101048896.51807        47.719    25095421.062 7  99764374.48907        47.562
E09  25093498.256 7 131867248.24607        45.406    25093497.488 5 107035081.10305        33.719    25093500.962 6  98472313.86606        39.188    25093502.158 7 101041162.44807        47.906    25093500.366 7  99756731.73307        47.938
E10  26384709.659 7 138652607.62907        42.188                                                    26384712.615 5 103539321.95005        34.844    26384715.237 7 106240341.02907        44.500    26384712.989 7 104889833.06407        44.281
E12  25366258.268 7 133300648.64707        42.781                                                    25366257.486 5  99542722.38605        35.969    25366259.245 7 102139497.35207        44.844    25366257.583 7 100841081.44307        44.812
E14  27671626.247 6 145415525.53206        36.625                                                    27671626.923 4 108589596.03304        27.625    27671627.654 5 111422364.46205        35.062    27671626.054 5 110005973.32405        35.438
E23  27031563.190 6 142052030.72906        39.125    27031560.642 4 115301878.83104        26.688    27031564.997 5 106077853.41305        32.250    27031566.421 6 108845220.22206        40.656    27031564.530 6 107461471.89606        40.719
E24  26328577.185 6 138357755.16806        39.531                                                    26328578.007 5 103319138.30605        35.156    26328579.566 7 106014476.77007        43.375    26328577.613 7 104666808.11607        43.500
E26  28283031.351 5 148628391.74705        33.781                                                    28283030.533 4 110988764.59204        27.031    28283032.082 6 113884213.95106        36.250    28283029.883 6 112436434.84706        36.125
E31  24817569.758 7 130417371.29107        45.031    24817566.413 5 105858190.41205        32.438    24817571.730 6  97389729.46306        38.156    24817572.966 7  99930288.94007        47.219    24817571.013 7  98659999.77907        47.125
E33  25044393.075 7 131609311.72907        46.375    25044391.381 5                        32.406    25044392.829 6  98279655.87506        38.250    25044393.940 7 100843545.23707        46.812    25044392.318 7  99561645.13407        46.906
G04  22456716.609 7 118010865.88407        42.156    22456716.252 5        31.750    22456721.299 5  91956534.10605        31.750    22456721.576 7  91956531.09907        44.250    22456720.417 6  88125011.01706        37.750    22456716.741 7 118010840.88407        43.531
G08  21700608.650 7 114037557.10307        46.938    21700607.971 8        48.500    21700614.480 8  88860492.51408        48.500    21700615.254 7  88860505.52307        44.969    21700608.733 6  85157952.91806        40.125
G09  24061379.519 4 126443409.78804        29.312    24061378.992 4        24.906    24061387.710 4  98527354.93804        24.906    24061388.484 5  98527350.91705        35.156    24061382.576 4  94422035.51104        29.000
G10  25785891.699 5                        35.062
G16  22022343.174 7 115728390.76607        45.812    22022342.227 5        35.062    22022344.591 5  90178030.39905        35.062
G18  24598965.955 6 129268494.43206        36.625    24598965.736 2        16.625    24598968.749 2 100728723.05602        16.625    24598968.874 5 100728725.08505        34.938    24598967.653 4  96531713.09604        29.750    24598966.409 6 129268491.43906        37.344
G21  24369801.567 6 128064170.45406        36.844    24369800.298 3        20.031    24369805.926 3  99790282.54403        20.031
G26  21953555.734 7 115366935.73507        46.469    21953555.131 7        46.875    21953559.879 7  89896449.59707        46.875    21953560.134 7  89896459.59507        43.250    21953554.579 6  86150780.17006        40.406
G27  20913702.729 8 109902397.13208        49.812    20913702.072 9        55.406    20913706.874 9  85638303.28409        55.406    20913707.263 8  85638299.29208        48.219    20913701.802 7  82070021.93007        44.781
G28  22960100.388 7 120656264.56407        42.688    22960100.058 5        31.125    22960105.901 5  94017955.76105        31.125    22960105.981 7  94017973.77107        43.469    22960105.278 6  90100539.73506        36.875    22960100.529 7 120656291.56907        43.375
G31  20787336.277 8 109238338.31508        48.812    20787335.880 8        51.281    20787337.958 8  85120872.77608        51.281    20787338.593 7  85120888.77607        46.406
J03  37585591.286 5 197513663.24405        33.812    37585596.893 6 153906783.99906        37.781    37585591.745 4 147493966.77904        29.125    37585591.799 5 197513660.25905        34.969    37585587.677 5 197513642.54205        34.219
J07                                                                                                                                                                                                  41570655.513 5 218455267.52405        33.594
R05  23792069.987 6 127182242.01806        37.094    23792069.647 6 127182207.02106        36.500    23792082.085 6  98919527.73106        36.719    23792082.197 6  98919537.72006        36.906
R06  23349619.905 4                        25.469
R14  24527337.841 4 130744535.61104        29.875    24527339.500 4 130744502.59304        29.438    24527345.948 5 101690167.54205        30.375    24527347.996 4 101690363.51704        28.531
R15  21387256.162 7 114287197.63507        47.156    21387256.297 7 114287239.63207        46.875    21387264.749 7  88890205.38307        43.562    21387264.740 7  88890224.39007        43.375
R16  21193563.904 8 113212305.35008        48.031    21193564.029 7 113212287.35107        47.531    21193571.582 7  88054072.38507        44.031    21193571.662 7  88054070.38707        44.250
R17  22510468.128 6 120458152.53306        40.094    22510468.790 6 120458164.53606        39.719    22510477.131 6  93689864.84006        38.125    22510477.167 6  93689851.84906        38.094
R18  19471018.444 8 103937742.72408        49.500    19471018.735 8 103937749.72708        49.344    19471026.791 8  80840561.07508        48.500    19471026.647 8  80840558.08008        48.562
R19  19998100.333 6 106976403.88306        38.156    19998101.460 6 106976360.87606        37.156    19998110.358 7  83203906.46107        45.438    19998110.371 7  83203954.46107        45.219
> 2025 01 01 00 05  0.0000000  0 58
C02                                                                                                  37513610.864 6 195343198.89806        40.875    37513608.411 7 151051743.23207        45.219    37513609.320 5 158732342.05905        34.219
C03                                                                                                                                                  39723159.430 5 159948709.06605        31.062
C05                                                                                                  36419850.394 7 189647771.58807        46.125    36419849.944 8 146647715.64908        48.531    36419849.046 6 154104371.44906        38.125
C06                                                                                                  40178288.901 6 209218912.18906        37.000    40178291.738 6 161781625.51006        36.875    40178287.692 4                        27.531
C07                                                                                                  39523196.797 5 205807724.22805        33.969    39523195.865 6 159143623.31706        40.469    39523191.059 4 167235623.92604        28.500
C08                                                                                                  40754216.260 4                        29.469    40754216.883 5 164100351.66205        35.625
C09                                                                                                  39720793.242 6 206836813.76406        38.344    39720799.075 7 159939526.72507        42.500    39720792.467 5 168071814.87105        30.156
C10                                                                                                  38453118.875 6 200235711.21906        38.844    38453120.187 7 154834993.53507        42.344    38453114.558 5 162707815.49905        31.031
C13                                                                                                  40530470.671 5                        31.062    40530474.318 4 163199456.50404        29.312
C16                                                                                                  40868898.565 6 212815309.06706        39.062    40868908.664 5 164562432.49805        35.938    40868901.694 4                        24.469
C20  26216779.833 6 137770083.11306        37.719    26216784.220 5 102880250.52305        32.875    26216778.761 6 136517623.12506        39.250                                                    26216780.261 5 110931742.79705        32.375    26216784.911 6 105564088.77306        40.500
C23  26138099.232 5 137356891.78805        35.938    26138098.902 4 102571813.72404        28.688    26138098.732 6 136108185.57606        36.469                                                    26138094.925 4                        28.500    26138102.217 6 105247620.91106        39.031
C27  21477409.101 8 112864671.06008        50.031    21477408.801 7  84282131.75307        42.438    21477408.117 8 111838631.26008        52.156                                                    21477408.755 7  90878088.75707        43.062    21477411.017 8  86480799.32708        51.406
C28  23688547.140 7 124484379.62707        42.406    23688548.088 5  92959230.70905        35.969    23688546.617 7 123352693.00007        44.688                                                    23688547.107 5 100234132.21005        35.812    23688550.295 7  95384253.38007        45.031
C30  23124008.722 7 121517539.77407        46.844    23124011.959 6  90743635.80306        38.062    23124007.792 8 120412850.89008        49.312                                                    23124011.886 6  97845301.79706        39.500    23124014.295 7  93110900.48907        47.562
C32  27274236.853 5 143327098.96705        33.438    27274244.522 4                        26.281    27274235.623 5 142024128.02005        34.781                                                    27274241.555 4                        25.625    27274245.145 5 109822116.03505        32.906
C37  22848527.639 8 120070010.12408        49.500    22848531.891 7  89662810.27507        42.219    22848526.011 8 118978471.83908        50.469                                                    22848530.705 6  96679814.51206        41.750    22848533.870 8  92001847.78708        50.375
C38  40732858.613 4 214052616.88704        29.469                                                    40732853.457 4                        27.844
C39  41645448.437 6 218848304.60206        37.375    41645448.853 4                        25.719    41645446.251 6 216858768.10706        37.375                                                    41645448.007 4                        29.750    41645451.073 5 167688979.87105        35.750
C40  40791766.283 5 214362177.26505        32.000                                                    40791767.365 5 212413435.70405        35.906                                                                                                    40791768.731 6 164251544.60306        36.500
C47  25704038.656 6 135075644.98306        38.344                                                    25704037.981 6 133847682.20306        39.812                                                    25704040.837 5 108762218.72305        30.688    25704043.532 6 103499539.27406        39.562
C48  25795454.129 5 135555983.30005        34.844    25795476.420 5 101226945.97905        30.312    25795452.059 5 134323651.35405        34.938                                                    25795455.071 5 109148974.87105        30.312    25795479.016 6 103867652.60806        39.156
C49  26593076.405 6 139747671.93606        37.188    26593073.262 4 104357223.69604        28.375    26593073.763 6 138477242.18106        36.938                                                                                                    26593075.992 6 107079454.05606        36.750
C56                                                                                                  38208784.180 6 198963317.91206        40.281                                                    38208786.758 5 161673998.70405        31.188
C60                                                                                                  37354091.081 7 194512599.07907        47.312                                                    37354077.396 6 158057444.29806        38.906    37354082.627 8 150409457.21008        48.625
E04  26189145.735 6 137624939.39806        41.031    26189147.252 5 111708493.73305        30.156    26189149.250 6 102771914.53006        36.344    26189149.910 7 105452916.55307        44.531    26189148.690 7 104112408.61907        44.625
E05  25535236.992 5 134188581.83805        34.469                                                    25535240.914 4 100205770.88404        29.406    25535243.103 6 102819828.72406        40.719    25535240.376 6 101512803.37606        40.062
E06  25107136.646 7 131938914.99907        44.625    25107134.858 5 107093253.35805        32.875    25107140.067 6  98525836.39706        38.219    25107141.701 7 101096082.26207        47.938    25107139.717 7  99810960.40707        47.594
E09  25100664.116 7 131904904.39407        45.656    25100663.298 5 107065646.11005        34.312    25100666.575 6  98500433.67206        38.594    25100667.744 7 101070015.81507        47.938    25100666.064 7  99785218.32007        47.750
E10  26368684.369 7 138568394.45207        42.312                                                    26368687.445 5 103476435.56405        34.625    26368689.705 7 106175814.12207        44.812    26368687.623 7 104826126.42007        44.375
E12  25353104.458 7 133231524.70807        42.906                                                    25353103.559 5  99491103.92705        35.844    25353105.314 7 102086532.31107        45.188    25353103.656 7 100788789.69407        44.938
E14  27698990.836 6 145559326.76606        36.250                                                    27698991.052 4 108696980.07604        27.031    27698992.131 5 111532549.82105        35.562    27698990.518 5 110114758.02805        35.531
E23  27036344.521 6 142077157.43806        38.844    27036342.634 4 115322273.82104        26.656    27036346.363 5 106096616.85305        32.438    27036347.648 6 108864473.14206        40.719    27036346.022 6 107480480.07306        40.750
E24  26324127.508 6 138334369.10706        39.219                                                    26324127.463 5 103301674.72305        33.719    26324128.883 7 105996557.62207        43.250    26324127.341 7 104649116.75407        43.000
E26  28294091.855 5 148686515.93505        33.906                                                    28294091.117 4 111032169.04304        26.844    28294092.380 6 113928750.70106        36.188    28294090.432 5 112480405.46605        35.938
E31  24818002.189 7 130419643.61607        45.000    24817998.648 5 105860034.85605        32.344    24818003.893 6  97391426.34506        37.719    24818005.281 7  99932030.07407        47.344    24818003.342 7  98661718.78607        47.031
E33  25044622.741 7 131610518.08907        46.531    25044620.519 5                        32.875    25044622.258 6  98280556.78106        38.000    25044623.790 7 100844469.62107        47.250    25044621.877 7  99562557.77207        47.031
G04  22457950.342 6 118017349.79206        41.656    22457949.985 5        31.812    22457955.538 5  91961586.45305        31.812    22457955.766 7  91961583.45107        44.219    22457954.280 6  88129852.85506        37.094    22457950.336 7 118017324.79507        43.531
G08  21694067.568 7 114003185.03507        45.875    21694066.889 7        46.875    21694073.448 7  88833709.13207        46.875    21694074.088 7  88833722.13907        43.969    21694067.947 6  85132285.53206        39.969
G09  24055544.587 5 126412734.51505        31.469    24055544.073 3        23.594    24055550.257 3  98503452.13103        23.594    24055550.463 5  98503448.15105        34.219    24055546.710 4  94399128.73204        28.281
G10  25777974.941 5 135464169.73815        31.906    25777974.888 2        16.562    25777981.509 2 105556523.36712        16.562
G16  22020841.052 7 115720495.12407        46.000    22020840.100 5        35.125    22020841.977 5  90171877.97705        35.125
G18  24613372.909 6 129344202.84406        36.094    24613372.664 2        16.656    24613375.525 2 100787716.66402        16.656    24613375.797 5 100787718.71005        33.969    24613374.996 4  96588248.69204        29.812    24613373.440 6 129344199.85406        37.156
G21  24351933.485 5 127970278.07505        35.688    24351932.216 3        18.938    24351938.435 3  99717119.70303        18.938
G26  21955385.615 7 115376551.77607        46.125    21955385.021 7        46.906    21955390.153 7  89903942.62307        46.906    21955390.770 7  89903952.62707        44.000    21955384.035 6  86157960.99106        39.875
G27  20917373.496 8 109921686.50808        49.625    20917372.844 9        55.188    20917377.409 9  85653333.97309        55.188    20917377.990 7  85653329.97207        47.938    20917372.359 7  82084426.34507        44.375
G28  22976241.522 7 120741085.84907        42.719    22976241.192 5        30.844    22976246.655 5  94084050.22305        30.844    22976246.794 7  94084068.23007        42.781    22976246.270 6  90163880.22606        36.375    22976241.816 7 120741112.84707        43.906
G31  20794796.016 8 109277539.83908        48.469    20794795.619 8        51.344    20794797.943 8  85151419.39008        51.344    20794798.529 7  85151435.38807        46.562
J03  37585628.824 5 197513860.24105        33.500    37585634.038 6 153906937.53706        37.781    37585629.203 4 147494113.91104        29.344    37585628.845 5 197513857.27005        34.438    37585625.658 5 197513839.55905        34.125
J07                                                                                                                                                                                                  41570641.337 5 218455195.03405        33.250
R05  23808777.604 6 127271562.90106        36.875    23808778.798 6 127271527.89806        36.688    23808791.473 6  98988999.50806        36.500    23808791.728 6  98989009.51606        36.438
R06  23358596.897 4                        26.031
R14  24538131.107 4                        25.906                                                                                                    24538141.553 4                        26.250
R15  21389085.382 7 114296971.88007        47.438    21389085.400 7 114297013.87507        46.781    21389094.178 7  88897807.55707        43.656    21389094.219 7  88897826.56207        43.844
R16  21183503.481 8 113158565.29908        48.062    21183503.691 7 113158547.29907        47.625    21183511.728 7  88012274.56907        44.375    21183511.727 7  88012272.57207        44.406
R17  22531756.695 6 120572070.16606        40.875    22531757.272 6 120572082.17406        40.062    22531765.318 6  93778467.46706        37.844    22531765.403 6  93778454.47106        37.688
R18  19475914.347 8 103963877.46108        49.406    19475914.553 8 103963884.46508        49.094    19475922.649 8  80860888.11708        48.438    19475922.506 8  80860885.11908        48.562
R19  19983512.366 6 106898365.79606        38.250    19983512.853 6 106898322.80106        37.125    19983521.912 7  83143210.20307        45.562    19983522.292 7  83143258.20107        45.188
> 2025 01 01 00 05 30.0000000  0 58
C02                                                                                                  37513520.895 6 195342732.45606        40.781    37513518.711 7 151051382.54507        45.312    37513519.619 5 158731963.00905        33.938
C03                                                                                                                                                  39723028.233 5 159948179.55605        31.250
C05                                                                                                  36419777.766 7 189647393.94107        46.250    36419777.576 8 146647423.64508        48.500    36419776.387 6 154104064.57906        38.188
C06                                                                                                  40183214.550 6 209244557.06406        37.062    40183216.797 6 161801455.72706        37.219    40183212.505 4                        27.344
C07                                                                                                  39526321.192 5 205823999.70205        33.562    39526321.762 6 159156208.56906        40.594    39526316.057 4 167248849.11804        28.875
C08                                                                                                                                                  40743101.785 5 164055595.65505        34.875
C09                                                                                                  39725152.175 6 206859510.87606        38.531    39725158.174 7 159957077.55107        42.500    39725151.722 5 168090258.13505        30.312
C10                                                                                                  38457029.823 6 200256077.28306        38.750    38457031.104 7 154850741.88107        42.438    38457025.806 5 162724364.62305        31.094
C13                                                                                                  40519679.399 5                        30.438    40519683.993 5 163156008.86905        30.562
C16                                                                                                  40874135.399 6 212842575.37706        39.500    40874144.331 5 164583516.54905        35.875    40874137.678 4                        24.906
C20  26226530.260 6 137821322.38506        37.500    26226534.079 5 102918513.59405        32.094    26226529.760 6 136568396.56406        39.406                                                    26226529.852 5 110973000.36205        31.719    26226536.719 6 105603350.01406        40.781
C23  26148776.747 5 137413001.29905        35.812    26148776.117 4 102613713.60204        28.562    26148776.198 6 136163784.96806        36.188                                                    26148772.453 4                        28.250    26148779.294 6 105290613.81206        38.188
C27  21478851.593 8 112872252.11708        50.062    21478851.419 7  84287792.94707        42.219    21478850.811 8 111846143.40008        52.156                                                    21478851.372 7  90884192.99607        43.281    21478853.665 8  86486608.20708        51.344
C28  23702792.200 7 124559236.59007        42.844    23702792.505 5  93015130.40505        35.500    23702791.584 7 123426869.45507        45.000                                                    23702792.284 5 100294406.63905        35.656    23702794.720 7  95441611.33107        44.688
C30  23110606.196 7 121447107.00707        47.812    23110609.125 6  90691039.96606        37.969    23110605.221 8 120343058.40508        49.562                                                    23110608.837 6  97788589.74806        39.719    23110611.506 7  93056932.56807        47.594
C32  27281195.292 5 143363660.89205        32.625    27281200.761 4                        24.594    27281192.904 5 142060357.58805        32.469                                                    27281200.138 3                        23.219
C37  22849887.223 8 120077154.02208        49.750    22849891.211 6  89668144.98506        41.781    22849885.644 8 118985550.79708        50.594                                                    22849890.503 6  96685566.73206        41.875    22849893.458 8  92007321.66308        50.281
C38  40722537.934 4 213998379.60904        29.750                                                    40722531.021 4                        27.531
C39  41651111.207 5 218878062.72405        34.812    41651112.383 3                        23.250    41651109.521 5 216888255.71105        35.562                                                    41651110.883 4                        26.000    41651114.241 5 167711781.62005        32.469
C40  40796030.480 5 214384581.98305        32.969                                                    40796030.109 6 212435636.75606        36.000                                                                                                    40796032.209 6 164268711.90206        36.125
C47  25686111.050 6 134981433.36906        38.969                                                    25686110.674 6 133754327.08706        40.938                                                    25686113.020 5 108686360.07305        30.562    25686115.997 6 103427351.22106        39.531
C48  25803830.099 5 135600002.74705        33.812    25803852.444 4 101259817.57904        29.500    25803829.255 6 134367270.60706        36.281                                                    25803831.471 5 109184419.05305        30.562    25803855.492 6 103901381.76806        39.469
C49  26610848.382 6 139841062.37206        37.000    26610844.689 4 104426963.33204        26.812    26610845.865 6 138569783.56506        36.375                                                    26610847.070 4 112599345.85004        26.969    26610847.615 6 107151013.02206        36.062
C56                                                                                                  38210923.985 6 198974460.80006        40.312                                                    38210926.251 5 161683053.22705        31.250
C60                                                                                                  37353848.997 7 194511338.30107        47.375                                                    37353835.374 6 158056419.81906        38.938    37353840.516 8 150408482.31008        48.562
E04  26203954.381 6 137702760.31906        40.625    26203954.717 4 111771660.02204        29.156    26203958.446 6 102830027.49606        36.281    26203959.079 7 105512545.50707        44.469    26203957.591 7 104171279.58007        44.562
E05  25529838.649 5 134160212.16905        34.562                                                    25529841.940 4 100184585.68504        29.250    25529843.123 6 102798090.92906        39.000    25529841.831 6 101491341.89006        38.781
E06  25118886.586 7 132000662.28407        44.781    25118885.549 5 107143372.83705        32.719    25118890.307 6  98571946.33206        38.375    25118891.529 7 101143395.05607        47.469    25118889.948 7  99857671.76407        47.406
E09  25107886.574 7 131942859.40407        46.312    25107885.863 5 107096453.72205        34.156    25107889.351 6  98528776.63206        38.594    25107890.685 7 101099098.16407        47.938    25107888.661 7  99813930.97507        47.688
E10  26352665.094 7 138484212.82407        42.812                                                    26352668.408 5 103413572.74905        34.594    26352670.382 7 106111311.39507        44.625    26352668.330 7 104762443.64807        44.312
E12  25339985.817 7 133162589.03807        42.969                                                    25339985.589 5  99439626.05005        35.906    25339987.514 7 102033711.53507        45.219    25339985.570 7 100736640.37007        45.031
E14  27726289.775 6 145702782.95706        36.656    27726285.411 3                        20.000    27726289.860 4 108804106.48504        27.969    27726290.873 5 111642470.81805        35.438    27726289.336 5 110223281.72505        35.719
E23  27041122.181 6 142102262.33706        39.625    27041119.490 4 115342651.22704        26.250    27041123.925 5 106115363.98305        32.344    27041125.018 6 108883709.32806        40.312    27041123.356 6 107499471.72806        40.406
E24  26319664.802 6 138310916.65006        40.125                                                    26319664.864 5 103284161.56405        34.219    26319666.154 7 105978587.57607        43.531    26319664.420 7 104631375.14807        43.375
E26  28305207.191 5 148744925.57205        34.562                                                    28305205.917 4 111075786.71404        27.375    28305207.385 6 113973506.15906        36.125    28305205.276 6 112524592.01406        36.031
E31  24818423.524 7 130421856.13307        45.781    24818419.316 5 105861830.72205        32.406    24818424.767 6  97393078.55606        37.719    24818426.419 7  99933725.37307        47.219    24818424.332 7  98663392.54007        46.969
E33  25044930.219 7 131612135.82307        46.625    25044928.498 5                        32.750    25044929.956 6  98281764.86406        38.125    25044931.728 7 100845709.21707        47.094    25044929.722 7  99563781.61107        46.969
G04  22459273.612 7 118024303.42207        42.781    22459273.250 5        32.156    22459279.036 5  91967004.82405        32.156    22459278.924 7  91967001.81707        44.125    22459277.756 6  88135045.43406        36.844    22459273.736 7 118024278.42107        43.594
G08  21687590.991 7 113969149.32007        45.781    21687590.312 7        46.469    21687596.549 7  88807187.83807        46.469    21687597.484 7  88807200.85707        44.188    21687591.343 6  85106869.29606        40.906
G09  24049790.888 4 126382506.01104        29.125    24049790.388 3        21.781    24049798.749 3  98479897.47003        21.781    24049798.924 5  98479893.44505        34.281    24049794.210 4  94376555.46104        28.719
G10  25770026.770 5                        32.250
G16  22019332.215 7 115712565.28207        46.656    22019331.263 5        35.594    22019332.974 5  90165698.89105        35.594
G18  24627853.360 6 129420295.57206        37.094    24627853.101 2        15.094    24627855.404 2 100847009.74402        15.094    24627854.925 5 100847011.78705        33.469    24627854.486 5  96645071.23005        30.156    24627853.457 6 129420292.58306        37.188
G21  24334062.570 6 127876363.50906        36.406    24334061.274 3        18.156    24334066.639 3  99643939.56503        18.156
G26  21957232.127 7 115386254.92907        46.688    21957231.537 7        47.125    21957237.059 7  89911503.53507        47.125    21957237.376 7  89911513.53407        43.938    21957230.762 6  86165206.85806        40.125
G27  20921102.879 8 109941284.09308        50.125    20921102.227 9        55.156    20921106.769 9  85668604.82809        55.156    20921107.283 8  85668600.83308        48.250    20921101.635 7  82099060.91707        44.531
G28  22992442.636 7 120826221.50207        43.344    22992442.292 5        30.781    22992447.232 5  94150389.62905        30.781    22992447.666 7  94150407.64407        42.969    22992446.869 6  90227455.45706        36.750    22992442.706 7 120826248.49707        43.594
G31  20802353.090 8 109317251.08108        49.188    20802352.693 8        51.531    20802355.129 8  85182363.19408        51.531    20802355.554 7  85182379.20007        46.906
J03  37585704.113 5 197514257.06605        33.094    37585709.358 6 153907246.75506        37.938    37585704.568 4 147494410.25904        29.281    37585704.555 5 197514254.04405        34.750    37585700.858 5 197514236.35905        34.281
J07                                                                                                                                                                                                  41570628.021 5 218455124.17605        32.844
R05  23825450.715 6 127360686.05106        37.844    23825451.686 6 127360651.04606        37.531    23825463.265 5  99058317.52805        35.906    23825463.488 5  99058327.51205        35.594
R06  23367648.673 4                        26.688
R14  24548978.294 5                        30.594                                                    24548989.106 4 101779936.60514        29.344    24548989.656 5 101780093.57705        30.500
R15  21390963.244 7 114307008.69207        47.594    21390963.557 7 114307050.69607        46.812    21390971.818 7  88905613.96107        43.625    21390971.755 7  88905632.95107        43.219
R16  21173446.614 7 113104842.47807        47.938    21173446.632 7 113104824.47907        47.594    21173454.399 7  87970490.16307        44.156    21173453.760 7  87970488.14907        44.125
R17  22553108.541 6 120686327.41206        40.781    22553109.002 6 120686339.40806        40.094    22553117.155 6  93867334.22306        37.719    22553116.945 6  93867321.22706        37.688
R18  19480959.398 8 103990808.76808        49.219    19480959.639 8 103990815.77108        48.906    19480967.829 8  80881834.71308        48.594    19480967.767 8  80881831.70408        48.844
R19  19969046.958 6 106820980.37106        38.312    19969046.364 6 106820937.36806        37.469    19969055.843 7  83083021.59507        45.531    19969056.455 7  83083069.58807        45.375
> 2025 01 01 00 06  0.0000000  0 58
C02                                                                                                  37513430.389 6 195342262.22506        41.000    37513428.379 7 151051018.96307        45.188    37513429.426 5 158731580.93705        34.406
C03                                                                                                                                                  39722896.248 5                        30.719
C05                                                                                                  36419704.677 7 189647013.32107        46.344    36419704.415 8 146647129.32708        48.469    36419703.222 6 154103755.31806        38.469
C06                                                                                                  40188155.420 6 209270285.74906        37.625    40188157.018 6 161821350.78906        36.688    40188153.397 4                        28.688
C07                                                                                                  39529433.749 5 205840209.75005        33.312    39529434.203 6 159168743.21906        40.719    39529429.034 4 167262021.10104        29.031
C08                                                                                                  40731978.697 5                        30.656    40731979.566 5 164010812.37505        35.125
C09                                                                                                  39729529.952 6 206882304.53306        38.844    39729535.199 7 159974703.01507        42.562    39729528.510 5 168108779.80705        30.531
C10                                                                                                  38460930.540 6 200276388.92106        39.031    38460931.561 7 154866448.15207        42.219    38460926.822 5 162740869.49305        31.781
C13                                                                                                  40508881.149 5                        30.375    40508885.981 5 163112519.32105        31.625
C16                                                                                                  40879386.402 6 212869918.03906        39.156    40879393.505 5 164604659.63205        35.344    40879388.426 4                        24.844
C20  26236259.491 6 137872448.52906        37.250    26236263.359 5 102956692.25605        32.188    26236258.270 6 136619057.95606        38.969                                                    26236258.488 5 111014166.87205        32.250    26236265.422 6 105642524.62806        40.750
C23  26159493.196 6 137469312.95106        36.594    26159491.680 4 102655764.33204        28.594    26159493.415 6 136219584.68506        37.906                                                    26159488.334 4                        29.000    26159494.482 6 105333761.58006        37.531
C27  21480383.266 8 112880301.44008        49.844    21480383.208 7  84293803.82307        42.188    21480382.404 8 111854119.55208        52.188                                                    21480383.158 7  90890674.28807        43.438    21480385.473 8  86492775.88708        51.219
C28  23717085.840 7 124634349.31407        42.656    23717085.719 5  93071221.07905        35.000    23717085.362 7 123501299.34007        45.219                                                    23717085.745 5 100354887.02605        35.906    23717088.042 7  95499165.24007        44.406
C30  23097264.408 7 121376996.46307        47.406    23097267.806 6  90638684.75306        38.312    23097263.089 8 120273585.24308        49.312                                                    23097266.946 6  97732137.15306        40.000    23097269.968 7  93003211.55307        47.469
C32  27288088.803 5 143399891.76805        34.625    27288097.469 4                        27.688    27288088.910 6 142096259.05206        36.625                                                    27288094.069 4                        26.938
C37  22851292.836 8 120084539.56408        49.750    22851296.530 6  89673660.14606        41.594    22851291.052 8 118992869.20108        50.594                                                    22851296.005 7  96691513.51707        42.312    22851298.705 8  92012980.70908        50.062
C38  40712221.296 4 213944160.26504        28.875                                                    40712216.083 4                        29.062
C39  41656784.644 5 218907876.37205        34.750    41656784.595 4                        24.406    41656782.248 5 216917798.34005        35.312                                                    41656784.236 4                        27.188    41656787.191 5 167734625.86405        33.781
C40  40800277.984 5 214406897.67705        32.500                                                    40800274.376 5 212457749.59905        34.438                                                                                                    40800278.774 5 164285810.93705        35.688
C47  25668206.212 6 134887344.95206        38.844                                                    25668206.395 6 133661094.00906        41.531                                                    25668208.719 5 108610600.54905        30.719    25668210.981 6 103355257.55106        39.094
C48  25812207.679 5 135644028.84705        33.125    25812231.290 5 101292694.20005        30.469    25812207.246 6 134410896.49606        37.281                                                    25812209.717 5 109219868.59305        30.719    25812234.019 6 103935116.01206        39.562
C49  26628628.787 5 139934503.25605        35.719    26628625.675 4 104496740.69204        27.281    26628627.397 6 138662374.99606        36.750                                                    26628627.744 4 112674583.95904        27.469    26628628.619 5 107222610.59005        35.750
C56                                                                                                  38213049.159 6 198985524.07706        40.688                                                    38213050.986 5 161692043.07605        31.219
C60                                                                                                  37353606.589 7 194510076.61107        47.500                                                    37353593.173 6 158055394.60206        39.125    37353598.229 8 150407506.69308        48.344
E04  26218764.251 6 137780582.16206        41.281    26218763.358 4 111834827.08404        29.000    26218767.905 6 102888141.14706        36.531    26218769.065 7 105572175.17707        44.938    26218766.688 7 104230151.24207        44.906
E05  25524508.506 6 134132199.76706        36.188                                                    25524511.909 4 100163667.37604        29.875    25524512.872 6 102776626.92706        39.750    25524511.407 6 101470150.72806        39.375
E06  25130667.844 7 132062572.45607        44.219    25130667.496 5 107193624.59805        33.562    25130671.457 6  98618177.89706        38.188    25130672.434 7 101190832.68407        47.188    25130671.076 7  99904506.36507        47.062
E09  25115165.932 7 131981110.71207        45.938    25115165.070 5 107127501.83205        33.594    25115168.454 6  98557340.87106        38.219    25115169.829 8 101128407.55908        48.094    25115167.688 7  99842867.78907        47.781
E10  26336651.717 7 138400063.86107        42.219                                                    26336655.419 5 103350734.32605        34.906    26336657.036 7 106046833.69307        44.750    26336655.239 7 104698785.58207        44.469
E12  25326903.844 7 133093842.65907        42.531                                                    25326903.307 6  99388289.52406        36.031    25326905.665 7 101981035.79207        45.281    25326903.502 7 100684634.23507        45.062
E14  27753522.407 6 145845891.75506        36.344    27753518.669 3                        21.156    27753522.743 4 108910973.42204        26.406    27753523.518 5 111752125.62205        35.219    27753521.959 5 110331542.60105        35.094
E23  27045895.181 6 142127345.35106        38.688    27045892.678 4 115363010.71704        26.188    27045897.015 5 106134094.74605        32.156    27045898.573 6 108902928.72406        40.625    27045896.500 6 107518446.80806        40.562
E24  26315188.622 6 138287396.38206        39.406                                                    26315189.570 5 103266597.77905        34.969    26315190.815 7 105960565.60907        44.219    26315188.737 7 104613582.26907        44.031
E26  28316375.586 5 148803618.38805        33.875                                                    28316374.192 4 111119615.84104        26.219    28316375.920 6 114018478.61906        36.000    28316374.105 5 112568992.78905        35.656
E31  24818832.676 7 130424008.19307        44.812    24818828.970 5 105863577.51705        32.594    24818833.942 6  97394685.61106        37.344    24818836.220 7  99935374.37207        47.500    24818833.901 7  98665020.56907        47.094
E33  25045316.286 7 131614164.35207        46.312    25045314.269 5                        33.125    25045315.843 6  98283279.67906        37.938    25045317.777 7 100847263.57107        47.125    25045315.708 7  99565316.20007        46.906
G04  22460685.634 7 118031724.51607        42.312    22460685.263 5        30.906    22460690.928 5  91972787.45805        30.906    22460690.870 7  91972784.46107        43.281    22460690.037 6  88140587.10306        37.094    22460685.673 7 118031699.51807        42.875
G08  21681177.727 7 113935448.52807        45.719    21681177.048 7        46.625    21681183.562 7  88780927.52707        46.625    21681184.269 7  88780940.53907        44.656    21681178.008 6  85081703.15106        41.125
G09  24044123.509 4 126352723.43704        28.219    24044122.982 3        18.906    24044131.723 3  98456690.17503        18.906    24044130.493 5  98456686.17305        31.844    24044126.441 4  94354315.19304        27.781
G10  25762048.622 4                        29.719
G16  22017816.236 7 115704600.60207        46.375    22017815.289 5        35.438    22017817.809 5  90159492.66305        35.438
G18  24642405.706 6 129496769.59106        36.750    24642405.385 2        15.031    24642407.704 2 100906599.97302        15.031    24642407.677 5 100906601.95805        34.250    24642407.042 5  96702178.51605        30.688    24642406.026 6 129496766.57106        36.656
G21  24316186.824 5 127782427.87105        35.312    24316185.510 3        18.031    24316190.674 3  99570743.02703        18.031
G26  21959094.951 7 115396045.43607        46.625    21959094.370 7        47.094    21959099.950 7  89919132.50707        47.094    21959099.726 7  89919142.52307        43.875    21959093.952 6  86172517.94406        40.344
G27  20924890.111 8 109961187.13208        50.000    20924889.459 9        55.281    20924894.135 9  85684113.70409        55.281    20924894.604 8  85684109.71108        48.406    20924889.099 7  82113923.58807        44.562
G28  23008702.332 7 120911668.88407        43.000    23008701.979 5        30.781    23008706.937 5  94216971.93705        30.781    23008706.933 7  94216989.95007        42.281    23008706.999 6  90291263.48306        36.844    23008702.616 7 120911695.87407        43.312
G31  20810006.295 8 109357471.08108        48.875    20810005.893 8        51.531    20810008.865 8  85213703.43108        51.531    20810009.040 7  85213719.43207        46.969
J03  37585818.108 5 197514852.54305        33.281    37585822.901 6 153907710.80106        37.688    37585818.008 4 147494855.00104        29.469    37585817.736 5 197514849.54305        34.938    37585814.316 5 197514831.85305        34.531
J07                                                                                                                                                                                                  41570614.641 5 218455054.08505        32.938
R05  23842085.678 6 127449607.08406        36.938    23842085.316 6 127449572.07306        36.438    23842097.722 5  99127478.31505        35.031    23842097.816 5  99127488.28905        35.688
R06  23376761.495 4                        26.906
R14  24559873.867 5 130917938.04015        33.938                                                                                                    24559884.058 4 101825261.31304        28.906
R15  21392891.282 7 114317309.10607        47.375    21392891.323 7 114317351.10707        46.750    21392899.847 7  88913625.36607        43.844    21392899.735 7  88913644.37207        43.562
R16  21163393.123 8 113051138.11108        48.469    21163393.279 8 113051120.11708        48.031    21163401.011 7  87928720.09307        44.688    21163401.002 7  87928718.09507        44.500
R17  22574523.803 6 120800918.96206        40.344    22574523.155 6 120800930.96806        39.562    22574531.460 6  93956460.98406        37.719    22574531.388 6  93956447.99906        37.719
R18  19486152.977 8 104018533.97108        48.875    19486153.317 8 104018540.96508        48.688    19486161.793 8  80903398.77508        48.938    19486161.650 8  80903395.77308        49.000
R19  19954701.497 6 106744250.07606        37.719    19954701.993 6 106744207.06706        37.094    19954712.031 7  83023342.48307        46.156    19954712.438 7  83023390.47607        45.688
> 2025 01 01 00 06 30.0000000  0 58
C02                                                                                                  37513339.750 6 195341788.14106        41.344    37513337.297 7 151050652.36807        45.125    37513338.483 5 158731195.70305        34.344
C03                                                                                                                                                  39722763.375 5                        30.781
C05                                                                                                  36419631.075 7 189646629.55007        46.656    36419630.759 8 146646832.58108        48.312    36419629.731 6 154103443.46106        38.094
C06                                                                                                  40193113.811 6 209296097.75206        38.500    40193114.622 6 161841310.25706        36.688    40193109.816 4                        27.188
C07                                                                                                  39532534.806 5 205856354.00805        33.844    39532534.200 6 159181226.99006        40.094    39532529.492 4 167275139.63604        28.906
C08                                                                                                  40720852.375 5                        32.625    40720849.895 5 163966002.38705        34.250
C09                                                                                                  39733926.148 6 206905194.45306        39.656    39733930.693 7 159992402.91307        42.156    39733924.536 4 168127379.70804        29.969
C10                                                                                                  38464820.857 6 200296645.85906        39.000    38464821.695 6 154882112.13106        41.969    38464817.094 5 162757329.94305        30.875
C13                                                                                                  40498069.742 5                        31.438    40498074.908 5 163068988.15605        31.844
C16                                                                                                  40884652.521 6 212897336.48006        39.219    40884659.562 5 164625861.32205        35.031    40884653.669 4                        24.969
C20  26245966.454 6 137923459.31106        37.438    26245970.340 5 102994784.71905        32.031    26245964.724 6 136669605.01306        38.812                                                    26245965.330 5 111055240.53605        31.438    26245971.840 6 105681610.84306        40.750
C23  26170247.579 6 137525826.53706        37.062    26170245.826 4 102697965.90504        27.844    26170247.660 6 136275584.51606        38.531                                                    26170242.529 4                        28.812    26170248.574 6 105377064.12106        37.719
C27  21482003.945 8 112888818.13008        49.781    21482003.927 7  84300163.70007        42.250    21482003.006 8 111862558.81808        52.375                                                    21482003.876 7  90897531.89307        43.281    21482006.169 8  86499301.68008        51.406
C28  23731427.399 7 124709715.38007        42.312    23731427.265 5  93127500.95105        35.000    23731426.688 7 123575980.26507        45.406                                                    23731427.429 5 100415571.40005        35.531    23731429.771 7  95556913.27007        44.500
C30  23083984.240 7 121307209.41307        47.156    23083987.844 6  90586571.10306        38.719    23083983.082 8 120204432.63008        49.312                                                    23083987.109 6  97675945.03206        39.562    23083989.684 7  92949738.41907        47.656
C32  27294920.624 5 143435790.52705        31.719    27294927.770 4                        25.906    27294918.876 5 142131831.46805        33.625                                                    27294925.635 4                        25.344
C37  22852744.572 8 120092167.80208        49.844    22852747.756 6  89679356.53406        41.375    22852742.524 8 119000428.08408        50.844                                                    22852747.745 7  96697655.71807        42.031    22852750.128 8  92018825.69608        50.281
C38  40701906.574 4 213889959.51904        28.812                                                    40701901.298 5                        30.062
C39  41662468.524 6 218937744.57806        36.625    41662469.034 4                        26.562    41662465.748 6 216947395.00106        36.812                                                    41662467.892 4                        28.781    41662470.789 5 167757511.90505        35.219
C40  40804506.164 5 214429123.89405        31.656                                                    40804504.559 5 212479773.69705        33.812                                                                                                    40804508.415 6 164302841.41006        36.250
C47  25650325.656 6 134793381.46406        38.906                                                    25650325.419 6 133567984.73706        41.312                                                    25650326.540 4 108534941.70204        29.000    25650330.192 6 103283259.61006        39.219
C48  25820585.976 5 135688059.16505        33.594    25820609.644 5 101325573.94205        30.562    25820585.793 6 134454526.56506        37.219                                                    25820589.306 5 109255321.53305        31.281    25820612.414 6 103968853.52906        39.594
C49  26646419.362 6 140027992.25706        36.375    26646416.442 4 104566553.96504        27.281    26646417.632 6 138755014.13406        37.469                                                    26646418.037 4 112749860.85204        27.062    26646418.671 5 107294245.06305        35.781
C56                                                                                                  38215158.022 6 198996507.49806        40.812                                                    38215160.180 5 161700967.98905        31.531
C60                                                                                                  37353364.090 7 194508813.80807        47.844                                                    37353350.744 6 158054368.48606        38.875    37353355.716 8 150406530.22508        48.688
E04  26233572.196 6 137858402.83406        40.625    26233572.711 4 111897993.13304        29.656    26233576.551 6 102946253.92906        36.531    26233577.224 7 105631803.94507        44.781    26233575.486 7 104289022.01607        44.844
E05  25519245.778 6 134104544.78006        37.719                                                    25519249.387 5 100143015.95405        30.969    25519250.735 6 102755436.74506        41.000    25519248.853 6 101449229.92206        40.625
E06  25142479.497 7 132124643.35407        44.656    25142478.215 5 107244006.75805        33.594    25142483.388 6  98664529.50806        38.438    25142484.316 7 101238393.45107        47.281    25142482.743 7  99951462.55207        47.188
E09  25122500.548 7 132019656.49607        45.594    25122499.654 5 107158788.94305        34.125    25122503.338 6  98586125.00906        38.188    25122504.686 7 101157942.58607        47.969    25122502.769 7  99872027.37107        47.625
E10  26320645.549 7 138315949.40907        42.750                                                    26320649.193 5 103287921.67705        35.406    26320650.542 7 105982382.44307        44.750    26320648.727 7 104635153.63407        44.594
E12  25313857.872 7 133025287.55407        42.625                                                    25313857.939 5  99337095.86005        35.938    25313859.869 7 101928506.61207        45.406    25313857.817 7 100632772.81007        45.188
E14  27780689.008 6 145988651.09406        36.812    27780684.425 3                        20.750    27780688.293 4 109017579.41404        26.875    27780689.645 5 111861512.62605        35.062    27780688.131 5 110439539.10405        35.156
E23  27050663.376 6 142152407.07906        38.281    27050662.818 4 115383353.06704        27.125    27050665.876 5 106152809.62705        31.781    27050667.711 6 108922131.83906        40.562    27050665.718 6 107537405.80906        40.469
E24  26310699.690 6 138263807.57106        39.594                                                    26310700.464 5 103248982.82005        34.844    26310701.785 7 105942491.13707        44.125    26310699.949 7 104595737.55707        43.938
E26  28327598.027 5 148862592.81405        34.500                                                    28327596.476 4 111163655.20704        26.500    28327598.070 5 114063666.88505        35.656    28327596.551 5 112613606.62605        35.469
E31  24819230.647 7 130426099.91607        45.031    24819227.356 5 105865275.37705        32.594    24819232.306 6  97396247.63906        37.531    24819234.218 7  99936977.14207        47.312    24819232.028 7  98666602.96607        46.969
E33  25045780.204 7 131616603.84707        46.406    25045778.465 5                        33.375    25045780.034 6  98285101.41406        38.250    25045781.883 7 100849132.81707        47.156    25045779.899 7  99567161.69107        47.062
G04  22462186.423 6 118039611.51306        41.875    22462186.043 4        29.781    22462191.749 4  91978933.13304        29.781    22462192.133 7  91978930.13807        43.000    22462190.827 6  88146476.71506        37.094    22462186.498 7 118039586.51507        42.500
G08  21674828.418 7 113902081.92407        46.656    21674827.743 7        47.438    21674834.029 7  88754927.61407        47.438    21674834.834 7  88754940.62307        44.938    21674828.537 6  85056786.55706        41.531
G09  24038540.998 5 126323386.60405        31.531    24038540.471 3        20.125    24038547.616 3  98433830.34703        20.125    24038547.164 4  98433826.38404        29.688
G10  25754040.228 5 135338388.98215        30.375    25754040.148 3        18.344    25754048.625 3 105458513.68513        18.344
G16  22016293.810 7 115696601.44407        46.031    22016292.863 5        34.594    22016295.071 5  90153259.57205        34.594
G18  24657030.184 6 129573622.57506        36.000    24657029.885 2        13.812    24657032.406 2 100966485.43802        13.812    24657032.084 5 100966487.46505        33.781    24657031.578 4  96759568.78604        29.938    24657030.277 6 129573619.59206        36.188
G21  24298308.012 5 127688473.59605        35.062    24298306.658 3        18.094    24298312.283 3  99497531.91803        18.094
G26  21960974.285 7 115405924.24507        46.031    21960973.704 7        46.469    21960979.458 7  89926830.28307        46.469    21960980.093 7  89926840.28807        43.906    21960973.783 6  86179894.99406        40.219
G27  20928735.188 8 109981393.61808        50.156    20928734.536 9        55.156    20928739.293 9  85699859.02509        55.156    20928739.821 8  85699855.03508        48.312    20928734.248 7  82129012.86707        44.469
G28  23025021.904 7 120997426.06407        43.344    23025021.551 5        30.375    23025025.977 5  94283795.64205        30.375    23025026.353 7  94283813.64007        42.188    23025026.423 6  90355302.83406        36.500    23025021.969 7 120997453.06807        43.500
G31  20817756.932 8 109398199.29208        49.344    20817756.535 8        51.406    20817759.306 8  85245439.67408        51.406    20817759.704 7  85245455.68107        46.938
J03  37585968.812 5 197515646.34905        33.594    37585973.824 6 153908329.39406        37.281    37585968.882 4 147495447.81804        29.250    37585968.891 5 197515643.36605        34.812    37585965.091 5 197515625.70605        34.656
J07                                                                                                                                                                                                  41570601.200 5 218454984.52705        32.281
R05  23858681.145 6 127538322.53506        37.125    23858681.520 6 127538287.52506        36.594    23858694.298 6  99196479.21006        36.375    23858694.195 6  99196489.20806        36.281
R06  23385938.500 4                        26.000
R14  24570818.879 5 130976270.33305        34.250    24570819.380 5 130976287.31515        32.969                                                    24570825.493 4 101870630.96404        25.469
R15  21394868.139 7 114327875.34107        47.031    21394868.577 7 114327917.34607        46.594    21394877.307 7  88921843.53607        44.156    21394877.289 7  88921862.53807        44.000
R16  21153343.206 7 112997454.20207        47.969    21153343.402 7 112997436.20507        47.688    21153351.442 7  87886965.94307        44.312    21153351.375 7  87886963.94607        44.344
R17  22595999.040 6 120915840.64906        39.531    22595998.740 6 120915852.64006        39.344    22596006.916 6  94045844.55006        38.125    22596006.419 6  94045831.53906        37.875
R18  19491495.579 8 104047051.50308        49.094    19491495.535 8 104047058.50108        48.688    19491504.154 8  80925579.09808        48.875    19491504.087 8  80925576.10108        49.000
R19  19940480.947 6 106668177.49106        38.406    19940481.541 6 106668134.49906        37.375    19940490.596 7  82964174.94407        45.781    19940490.851 7  82964222.94707        45.344
> 2025 01 01 00 07  0.0000000  0 58
C02                                                                                                  37513247.431 6 195341307.96006        41.188    37513244.920 7 151050281.06007        45.062    37513246.240 5 158730805.51405        34.438
C03                                                                                                                                                  39722630.493 5                        30.312
C05                                                                                                  36419556.338 7 189646240.41707        46.344    36419555.933 8 146646531.69208        48.500    36419554.838 6 154103127.26806        38.250
C06                                                                                                  40198085.340 6 209321990.52906        38.000    40198087.122 6 161861332.21706        36.812    40198082.557 4                        27.094
C07                                                                                                  39535623.009 5 205872430.04005        33.781    39535620.753 6 159193658.03306        39.781    39535617.096 4 167288202.73404        29.094
C08                                                                                                  40709715.774 5                        31.875    40709713.049 5 163921164.49705        32.594
C09                                                                                                  39738340.388 6 206928178.15606        38.969    39738344.285 7 160010175.36507        42.219    39738338.633 5 168146055.83505        30.531
C10                                                                                                  38468700.309 6 200316845.62506        39.188    38468701.120 7 154897731.87507        42.469    38468696.269 5 162773743.90005        31.188
C13                                                                                                  40487246.950 5                        30.031    40487253.923 5 163025414.40105        32.906
C16                                                                                                  40889931.162 6 212924828.25006        39.125    40889938.945 5 164647119.74505        35.250    40889933.092 4                        25.156
C20  26255651.082 6 137974350.50406        38.156    26255654.588 5 103032787.94505        31.469    26255650.095 6 136720033.53406        39.688                                                    26255650.419 5 111096217.86905        32.219    26255657.099 6 105720605.37506        41.219
C23  26181040.598 6 137582539.98606        37.062    26181038.756 4 102740316.76004        29.406    26181039.315 6 136331782.38906        37.625                                                    26181034.694 4                        29.000    26181040.640 6 105420519.74206        37.594
C27  21483712.961 8 112897799.30408        49.969    21483712.934 7  84306870.45007        42.062    21483712.022 8 111871458.34708        52.219                                                    21483712.834 7  90904763.50207        43.312    21483715.190 8  86506183.37408        51.250
C28  23745815.830 7 124785330.49607        42.031    23745816.134 5  93183966.77205        34.812    23745815.446 7 123650907.95707        44.594                                                    23745816.213 5 100476456.30705        35.469    23745819.074 7  95614852.12607        44.438
C30  23070765.281 7 121237745.15607        47.125    23070768.996 6  90534698.50706        38.594    23070764.341 8 120135599.87808        49.188                                                    23070768.579 6  97620012.81406        39.969    23070770.452 7  92896512.61507        46.969
C32  27301687.760 5 143471354.47005        31.969    27301695.720 4                        25.688    27301687.895 5 142167072.11105        33.750                                                    27301692.789 4                        25.719    27301697.640 5 109932622.11815        33.062
C37  22854242.053 8 120100037.77108        49.875    22854245.546 6  89685233.44706        41.281    22854240.140 8 119008226.51108        50.469                                                    22854245.102 7  96703992.55907        42.000    22854247.708 8  92024855.92008        50.125
C38  40691594.473 4 213835775.82704        27.844                                                    40691588.575 4                        27.719
C39  41668161.456 5 218967664.94905        31.188    41668162.047 3                        22.750    41668159.896 5 216977043.34805        31.906                                                    41668161.898 4                        24.875    41668164.920 5 167780437.95305        30.750
C40  40808717.602 5 214451258.16705        31.812                                                    40808716.400 5 212501706.80305        34.000                                                                                                    40808720.328 6 164319801.52006        36.344
C47  25632468.918 6 134699542.55406        39.719                                                    25632468.489 7 133474998.93407        42.031                                                    25632469.909 5 108459383.14005        30.188    25632473.262 6 103211357.11906        38.469
C48  25828964.622 5 135732089.32305        33.688    25828988.752 5 101358453.57705        30.438    25828963.447 6 134498156.44206        36.531                                                    25828967.590 5 109290774.37005        30.688    25828990.981 6 104002590.87706        38.562
C49  26664218.331 6 140121525.28506        37.250    26664215.174 4 104636400.10704        27.156    26664216.127 6 138847696.84606        36.875                                                    26664217.028 4 112825173.20104        27.594    26664217.492 5 107365913.29605        35.281
C56                                                                                                  38217251.016 6 199007408.88506        40.250                                                    38217253.782 5 161709826.23205        30.656
C60                                                                                                  37353120.969 7 194507547.75507        47.594                                                    37353107.481 6 158053339.71306        38.906    37353112.605 8 150405551.23708        48.500
E04  26248379.810 6 137936218.16306        39.969    26248380.920 4 111961154.90604        28.969    26248384.090 6 103004362.72906        36.594    26248384.884 7 105691428.62507        45.031    26248383.315 7 104347888.75307        45.062
E05  25514050.859 6 134077245.39906        38.375                                                    25514054.781 5 100122630.09205        31.562    25514055.789 6 102734519.07706        41.312    25514054.060 6 101428578.15206        41.000
E06  25154320.665 7 132186870.79807        44.031    25154319.994 5 107294516.03005        33.281    25154325.159 6  98710997.99806        38.562    25154325.948 7 101286074.18307        47.406    25154324.245 7  99998537.16807        47.344
E09  25129891.292 7 132058492.95407        45.781    25129890.184 5 107190312.02805        34.000    25129894.123 6  98615126.21006        38.750    25129895.248 8 101187700.34508        48.219    25129893.147 8  99901406.85308        48.000
E10  26304645.715 7 138231869.38007        43.156                                                    26304649.359 6 103225134.73206        36.062    26304650.734 7 105917957.56407        45.125    26304648.740 7 104571547.72107        44.969
E12  25300849.021 7 132956923.58807        42.844                                                    25300848.507 6  99286044.90506        36.000    25300850.646 7 101876123.89207        45.562    25300848.573 7 100581055.97307        45.281
E14  27807787.574 6 146131058.67506        36.125    27807785.049 3                        20.562    27807787.843 4 109123922.79904        26.938    27807789.406 5 111970630.15105        35.469    27807787.314 5 110547269.55105        35.406
E23  27055429.153 6 142177446.28106        38.875    27055428.384 4 115403677.02104        26.562    27055431.179 5 106171507.70205        31.969    27055432.952 6 108941317.68806        40.688    27055430.578 6 107556347.77406        40.625
E24  26306197.739 6 138240147.62806        39.969                                                    26306197.815 5 103231314.73805        34.969    26306198.796 7 105924362.12607        44.062    26306197.545 7 104577839.00607        43.969
E26  28338872.989 5 148921845.27405        34.062                                                    28338870.981 4 111207902.29604        26.188    28338873.367 5 114109068.18905        35.094    28338871.785 5 112658430.81305        34.875
E31  24819617.266 7 130428129.47107        45.438    24819613.791 5 105866922.75105        32.281    24819618.553 6  97397763.23406        38.000    24819619.991 7  99938532.26607        47.188    24819618.154 7  98668138.32207        47.000
E33  25046322.082 7 131619452.47707        46.062    25046320.097 5                        32.844    25046322.207 6  98287228.65806        38.125    25046323.918 7 100851315.54907        47.375    25046321.951 7  99569316.67907        47.188
G04  22463775.439 6 118047960.92106        41.656    22463775.059 5        30.500    22463780.827 5  91985439.13005        30.500    22463780.916 7  91985436.13607        43.281    22463779.529 6  88152711.61906        36.469    22463775.496 7 118047935.93207        42.531
G08  21668541.891 7 113869046.75007        47.094    21668541.212 8        48.781    21668547.802 8  88729185.96408        48.781    21668548.536 7  88729198.97507        45.312    21668542.315 6  85032117.47906        41.719
G09  24033042.778 5 126294493.51905        32.875    24033042.228 3        23.312    24033050.232 3  98411316.28503        23.312    24033051.529 5  98411312.27105        32.531    24033045.348 4  94310831.88004        25.594
G10  25746001.719 4 135296146.41804        28.969    25746001.380 2        16.812    25746012.643 2 105425597.39802        16.812
G16  22014765.362 7 115688565.86907        46.781    22014764.415 5        35.062    22014765.822 5  90146998.10205        35.062
G18  24671725.803 5 129650850.32605        35.812    24671725.549 2        13.812    24671728.159 2 101026662.99402        13.812    24671728.020 5 101026665.00505        33.719    24671727.063 5  96817238.88505        30.250    24671726.266 5 129650847.31205        35.938
G21  24280425.249 6 127594500.30506        36.594    24280423.877 3        18.750    24280429.975 3  99424306.02803        18.750
G26  21962871.158 7 115415890.39907        46.344    21962870.573 7        46.875    21962876.206 7  89934596.12207        46.875    21962876.506 7  89934606.12307        43.969    21962869.878 6  86187337.25406        39.719
G27  20932637.428 8 110001899.57108        50.375    20932636.776 9        55.781    20932641.671 9  85715837.70309        55.781    20932642.127 8  85715833.70608        48.469    20932636.193 7  82144325.76507        44.219
G28  23041399.022 7 121083489.15607        42.969    23041398.674 5        30.406    23041403.435 5  94350857.70805        30.406    23041403.847 7  94350875.70407        42.344    23041403.636 6  90419570.64506        36.375    23041399.088 7 121083516.14707        43.344
G31  20825603.514 8 109439433.03108        49.406    20825603.121 8        51.500    20825605.759 8  85277569.84208        51.500    20825606.228 7  85277585.84607        46.531
J03  37586157.999 5 197516636.19205        34.062    37586161.907 6 153909100.68806        37.625    37586157.282 4 147496187.00204        29.188    37586157.962 5 197516633.14205        35.344    37586154.551 5 197516615.48905        35.406
J07                                                                                                                                                                                                  41570587.573 5 218454913.32705        31.594
R05  23875239.144 6 127626827.39606        37.469    23875238.881 6 127626792.40306        37.000    23875251.095 6  99265316.34206        36.844    23875250.907 6  99265326.32906        36.906
R06  23395176.338 4                        24.000
R14  24581810.832 6 131034860.65306        36.531    24581811.006 5 131034877.65505        35.938                                                    24581817.978 4 101916201.27504        28.469
R15  21396895.261 7 114338707.03907        47.781    21396895.574 7 114338749.03607        46.656    21396904.224 7  88930268.18307        44.344    21396904.031 7  88930287.18607        43.094
R16  21143297.842 8 112943791.07608        48.469    21143297.927 8 112943773.07508        48.094    21143305.233 7  87845227.96807        44.219    21143305.416 7  87845225.97207        44.156
R17  22617534.908 6 121031086.13506        39.812    22617534.899 6 121031098.14406        39.125    22617543.357 6  94135479.93506        37.875    22617543.245 6  94135466.93006        37.969
R18  19496985.402 8 104076357.34308        49.375    19496985.460 8 104076364.34608        48.844    19496993.963 8  80948372.55008        48.938    19496993.722 8  80948369.55908        48.750
R19  19926383.618 6 106592764.65606        38.188    19926383.725 6 106592721.65506        37.156    19926392.641 7  82905520.53307        45.281    19926392.833 7  82905568.53507        44.938
> 2025 01 01 00 07 30.0000000  0 59
C02                                                                                                  37513154.693 6 195340825.44606        40.906    37513152.472 7 151049907.96307        45.344    37513153.676 5 158730413.46605        34.250
C03                                                                                                                                                  39722496.969 5 159946047.50805        30.688
C05                                                                                                  36419481.437 7 189645849.84807        46.281    36419480.969 8 146646229.68008        48.500    36419479.942 6 154102809.90506        38.281
C06                                                                                                  40203073.899 6 209347967.74306        37.938    40203075.708 6 161881419.45206        37.312    40203071.313 4                        27.156
C07                                                                                                  39538697.588 5 205888441.72305        33.656    39538695.350 6 159206039.24306        39.500    39538691.362 4 167301213.56804        29.031
C08                                                                                                  40698573.880 5                        30.750    40698570.757 5 163876302.51405        32.812
C09                                                                                                  39742772.163 6 206951259.39106        39.094    39742776.426 7 160028023.19107        42.375    39742770.824 5 168164811.18905        30.219
C10                                                                                                  38472568.690 6 200336991.77306        39.406    38472570.369 7 154913310.18207        42.719    38472564.946 5 162790114.31605        30.625
C13                                                                                                  40476416.961 4                        29.969    40476422.928 5 162981801.46905        32.438
C16                                                                                                  40895225.544 6 212952396.85106        38.531    40895233.814 6 164668437.54506        36.281    40895227.908 4                        24.875
C20  26265312.469 6 138025123.92006        37.719    26265315.532 5 103070703.16305        31.156    26265312.492 6 136770345.33906        40.031                                                    26265311.663 5 111137100.35705        31.656    26265318.620 6 105759509.68006        41.625
C23  26191870.889 6 137639457.17206        36.562    26191870.013 4 102782819.72904        29.750    26191870.992 6 136388182.13806        38.062                                                    26191865.848 4                        28.531    26191871.244 6 105464131.48606        37.594
C27  21485510.955 8 112907248.11508        49.656    21485511.084 7  84313926.40007        42.250    21485510.190 8 111880821.26508        52.281                                                    21485510.832 7  90912371.65107        43.406    21485513.170 8  86513423.39008        51.344
C28  23760252.735 7 124861196.38507        42.031    23760253.236 5  93240619.89005        34.875    23760252.543 7 123726084.15807        44.750                                                    23760253.051 5 100537543.11605        35.844    23760256.060 7  95672983.14607        44.562
C30  23057609.198 7 121168609.05207        47.000    23057612.494 6  90483070.95806        38.688    23057608.666 8 120067092.28208        49.906                                                    23057612.192 6  97564344.82306        40.250    23057614.401 7  92843538.26107        47.312
C32  27308392.590 5 143506587.20305        33.469    27308400.760 4                        27.750    27308391.683 5 142201984.57205        34.844                                                    27308397.087 4                        26.969    27308402.788 5 109959618.79505        35.781
C37  22855786.520 8 120108154.58608        49.625    22855790.508 6  89691294.67306        41.750    22855784.610 8 119016269.53708        50.406                                                    22855789.577 7  96710528.16907        42.188    22855792.572 8  92031075.28508        50.375
C38  40681288.818 4 213781613.90504        28.344                                                    40681283.331 4                        29.719
C39  41673865.636 5 218997640.93105        34.781    41673866.280 4                        26.188    41673863.839 5 217006746.84105        35.844                                                    41673866.480 4                        28.156
C40  40812912.797 5 214473304.19605        31.969                                                    40812913.092 5 212523552.40605        35.031                                                                                                    40812915.428 5 164336693.94705        35.906
C47  25614636.158 6 134605834.03906        38.938                                                    25614637.669 7 133382142.28407        42.969                                                    25614638.620 5 108383929.55705        30.438    25614641.302 6 103139554.49206        39.125
C48  25837344.567 5 135776120.96305        34.625    25837366.858 4 101391334.32904        28.719    25837342.962 6 134541787.78406        37.469                                                    25837346.878 5 109326228.37805        31.219    25837369.633 6 104036329.34306        38.156
C49  26682025.699 6 140215104.28006        36.156    26682022.963 4 104706280.59304        26.031    26682023.759 6 138940425.12306        36.000                                                    26682023.940 4 112900522.58304        27.125    26682025.129 5 107437616.73105        35.438
C56                                                                                                  38219329.818 6 199018232.02306        40.625                                                    38219332.267 5 161718620.94505        31.688
C60                                                                                                  37352877.913 7 194506282.32107        47.469                                                    37352864.465 6 158052311.44706        38.812    37352869.571 8 150404572.73808        48.562
E04  26263188.066 6 138014030.22006        40.969    26263186.859 4 112024313.99604        28.531    26263191.974 6 103062469.04906        36.719    26263192.875 7 105751050.76907        45.500    26263190.457 7 104406752.98707        45.312
E05  25508924.859 6 134050305.89106        39.062                                                    25508928.034 5 100102512.92905        31.594    25508929.368 6 102713877.14406        41.469    25508927.728 6 101408198.60606        41.125
E06  25166192.960 7 132249256.71307        44.812    25166191.646 5 107345153.92805        33.156    25166196.685 6  98757584.83006        38.156    25166197.684 7 101333876.32407        47.500    25166195.857 7 100045731.65707        47.219
E09  25137337.191 7 132097622.35307        46.000    25137336.530 5 107222072.86705        33.688    25137339.432 6  98644346.17006        37.844    25137341.035 8 101217682.58408        48.000    25137339.368 7  99931007.95007        47.562
E10  26288653.313 7 138147829.72807        43.000                                                    26288657.333 5 103162377.93705        35.812    26288658.681 7 105853563.62707        45.125    26288656.478 7 104507972.35507        44.844
E12  25287877.152 7 132888756.80607        42.906                                                    25287877.142 6  99235141.20006        36.125    25287879.076 7 101823892.26207        45.750    25287876.837 7 100529488.30707        45.375
E14  27834820.530 5 146273116.91805        35.688    27834817.012 3                        18.781    27834820.991 4 109230005.30304        26.156    27834821.883 5 112079480.02705        35.250    27834820.060 5 110654735.74605        34.969
E23  27060190.768 6 142202467.68806        39.281    27060189.092 4 115423986.61404        26.719    27060192.485 5 106190192.45505        31.281    27060194.455 6 108960489.89106        40.750    27060192.077 6 107575276.25006        40.500
E24  26301682.002 6 138216419.97306        39.219                                                    26301682.754 5 103213596.07205        34.969    26301684.070 7 105906181.21607        44.094    26301682.270 7 104559889.21707        43.906
E26  28350202.210 5 148981378.42805        34.031                                                    28350200.646 4 111252358.87604        26.438    28350202.208 5 114154684.52105        35.750    28350200.430 5 112703467.27205        35.438
E31  24819992.304 7 130430101.09207        45.281    24819988.821 5 105868523.08305        32.594    24819993.833 6  97399235.55006        37.438    24819995.186 7  99940042.99107        47.062    24819993.255 7  98669629.84807        46.750
E33  25046942.885 7 131622714.43107        46.125    25046941.231 5                        33.062    25046943.087 6  98289664.55006        38.031    25046944.690 7 100853814.99107        47.375    25046942.647 7  99571784.34907        47.094
G02  25911160.378 5 136164061.85615        32.219
G04  22465452.757 6 118056775.24606        40.594    22465452.391 4        29.031    22465458.284 4  91992307.37004        29.031    22465458.369 7  91992304.36607        43.062    22465456.584 6  88159293.66306        36.281    22465452.792 6 118056750.24206        41.344
G08  21662319.015 7 113836346.41307        47.062    21662318.336 8        48.781    21662324.908 8  88703705.22308        48.781    21662325.820 7  88703718.23407        45.250    21662319.510 6  85007698.44106        41.719
G09  24027630.433 5 126266048.03705        33.406    24027629.879 3        23.375    24027638.678 3  98389150.91503        23.375    24027639.045 5  98389146.95805        31.312    24027632.833 4  94289590.17304        25.531
G10  25737934.110 5 135253752.28905        31.000    25737933.806 3        18.188    25737945.030 3 105392562.94003        18.188
G16  22013229.546 7 115680498.57607        45.906    22013228.607 5        34.531    22013230.668 5  90140711.91105        34.531
G18  24686493.622 5 129728454.50605        34.688    24686493.363 2        12.969    24686495.557 2 101087133.84602        12.969    24686496.268 5 101087135.83505        33.000    24686494.461 5  96875190.15105        30.156    24686493.468 5 129728451.47505        35.281
G21  24262540.689 5 127500514.59905        35.750    24262539.339 3        18.375    24262544.928 3  99351070.48603        18.375
G26  21964785.199 7 115425948.97807        46.125    21964784.618 7        46.562    21964790.359 7  89942433.97207        46.562    21964790.610 7  89942443.98907        43.688    21964784.219 6  86194848.51206        40.125
G27  20936596.946 8 110022707.03508        50.375    20936596.294 9        55.625    20936601.283 9  85732051.32209        55.625    20936601.730 8  85732047.32608        48.469    20936595.925 7  82159863.81507        44.219
G28  23057834.913 7 121169860.21907        42.562    23057834.578 5        30.156    23057839.442 5  94418159.73805        30.156    23057839.728 7  94418177.72407        42.781    23057839.611 6  90484068.39606        36.094    23057834.884 7 121169887.21307        42.750
G31  20833546.519 8 109481175.77708        48.875    20833546.130 8        50.781    20833548.817 8  85310096.63408        50.781    20833549.135 7  85310112.63807        46.219
J03  37586384.589 5 197517825.65205        34.438    37586388.608 6 153910027.59406        37.500    37586383.528 4 147497075.27904        29.312    37586384.534 5 197517822.66005        35.375    37586380.761 5 197517804.96605        35.094
J07                                                                                                                                                                                                  41570574.836 5 218454844.44705        31.375
R05  23891755.546 6 127715121.21106        36.750    23891755.533 6 127715086.22106        36.062    23891769.070 6  99333989.35006        37.156    23891769.231 6  99333999.34406        38.156
R06  23404475.170 4                        25.750
R14  24592851.204 5 131093713.46805        34.562    24592851.553 5 131093730.47505        33.438                                                    24592858.762 4 101961975.86004        26.781
R15  21398973.375 7 114349810.48507        47.188    21398973.434 7 114349852.49007        46.438    21398982.181 7  88938904.16207        43.750    21398981.703 7  88938923.15207        43.719
R16  21133256.432 7 112890154.99807        47.750    21133256.714 7 112890137.00107        47.844    21133264.928 7  87803511.03407        44.344    21133264.749 7  87803509.02807        44.375
R17  22639131.892 6 121146655.30206        39.844    22639131.610 6 121146667.31106        38.531    22639140.358 6  94225367.06106        37.188    22639139.942 6  94225354.06606        37.750
R18  19502623.473 8 104106453.85908        48.781    19502623.487 8 104106460.86008        48.594    19502631.932 8  80971780.98208        48.781    19502631.780 8  80971777.97608        48.594
R19  19912410.879 6 106518018.67906        38.250    19912410.807 6 106517975.68606        37.750    19912419.535 7  82847384.82807        45.062    19912419.857 7  82847432.80907        44.781
> 2025 01 01 00 08  0.0000000  0 59
C02                                                                                                  37513060.692 6 195340336.16906        41.156    37513058.526 7 151049529.64407        45.344    37513059.269 5 158730015.88605        34.281
C03                                                                                                                                                  39722363.328 5 159945509.30405        31.312
C05                                                                                                  36419405.198 7 189645453.20507        46.281    36419404.851 8 146645922.97708        48.562    36419403.681 6 154102487.60106        38.406
C06                                                                                                  40208077.428 6 209374024.35106        37.281    40208080.712 6 161901568.06206        37.500    40208074.234 4                        26.656
C07                                                                                                  39541758.841 5 205904384.14205        33.781    39541757.014 6 159218366.98106        39.469    39541753.093 4 167314168.08104        28.594
C08                                                                                                  40687423.158 5                        31.250    40687423.630 5 163831413.34205        33.250
C09                                                                                                  39747222.843 6 206974433.35906        39.062    39747226.552 7 160045942.74407        42.125    39747221.204 5 168183641.89405        30.125
C10                                                                                                  38476425.646 6 200357079.59606        39.031    38476427.767 7 154928843.36707        42.438    38476422.089 5 162806437.31805        30.969
C13                                                                                                  40465573.793 5                        31.000    40465580.802 5 162938146.43305        32.375
C16                                                                                                  40900532.745 6 212980037.32006        38.125    40900542.648 6 164689810.90106        36.344    40900536.464 4                        25.219
C20  26274949.922 6 138075772.78406        36.500    26274953.701 5 103108525.37205        31.438    26274950.696 6 136820533.80106        40.406                                                    26274949.362 5 111177882.60905        31.375    26274957.137 7 105798318.57707        42.406
C23  26202739.192 5 137696573.40605        35.938    26202739.439 4 102825471.31804        28.625    26202739.470 6 136444779.15906        37.406                                                    26202734.590 4                        28.094    26202740.107 6 105507895.78006        37.031
C27  21487396.904 8 112917159.19408        49.469    21487397.039 7  84321327.55207        42.438    21487396.270 8 111890642.24108        52.375                                                    21487396.863 7  90920352.01407        43.250    21487399.232 8  86521017.61008        51.188
C28  23774736.287 7 124937306.22107        42.062    23774736.941 5  93297455.18305        34.844    23774736.382 7 123801502.08407        44.781                                                    23774736.389 5 100598826.36105        35.594    23774739.085 7  95731301.09407        44.250
C30  23044515.015 7 121099797.88007        47.031    23044518.566 6  90431686.05006        39.125    23044514.282 8 119998906.66108        50.062                                                    23044517.433 6  97508938.47606        39.594    23044520.218 7  92790812.87207        47.438
C32  27315031.803 4 143541483.27404        27.500    27315042.092 4                        25.969    27315031.678 5 142236563.40505        31.281                                                    27315035.097 3                        23.094    27315041.920 5 109986357.57305        33.719
C37  22857377.472 8 120116514.81508        49.312    22857381.545 6  89697537.68906        41.875    22857375.580 8 119024553.76308        50.406                                                    22857380.730 7  96717259.77407        42.188    22857383.703 8  92037481.16808        50.344
C38  40670984.511 4 213727469.82304        26.438                                                    40670987.874 4                        29.875
C39  41679579.719 5 219027667.39505        31.531    41679581.830 3                        21.469    41679578.168 5 217036500.27205        33.188                                                    41679579.391 4                        24.062    41679582.409 5 167826409.95615        30.875
C40  40817090.578 5 214495257.09905        30.875                                                    40817090.372 5 212545305.73705        34.562                                                                                                    40817092.637 5 164353515.02005        35.969
C47  25596828.196 6 134512253.03306        38.656                                                    25596829.654 7 133289411.97407        42.969                                                    25596830.712 5 108308578.59405        30.656    25596833.787 6 103067849.55006        39.062
C48  25845721.622 5 135820147.09405        32.562    25845745.094 4 101424210.87604        29.219    25845721.117 6 134585413.70206        36.062                                                    25845724.849 5 109361677.99905        31.125    25845748.052 6 104070063.64306        38.562
C49  26699840.628 5 140308722.72205        35.969    26699837.489 4 104776190.52504        26.562    26699839.327 6 139033192.44306        36.344                                                    26699838.243 4 112975903.69204        27.062    26699840.675 5 107509350.40405        35.375
C56                                                                                                  38221392.880 6 199028972.25806        40.969                                                    38221394.903 5 161727348.29705        31.312
C60                                                                                                  37352634.261 7 194505012.92307        47.625                                                    37352620.688 6 158051279.97506        39.094    37352625.785 8 150403591.16408        48.469
E04  26277992.604 6 138091832.34906        40.125    26277992.699 4 112087464.98804        28.875    26277997.192 6 103120567.98606        37.000    26277998.223 7 105810665.33507        45.656    26277995.769 7 104465609.73907        45.562
E05  25503865.927 6 134023721.84706        39.406                                                    25503869.178 5 100082661.23805        31.938    25503871.000 7 102693507.59007        42.438    25503868.881 7 101388087.98807        42.000
E06  25178093.193 7 132311794.43207        44.250    25178091.960 5 107395915.02005        33.594    25178096.932 6  98804285.04606        38.031    25178098.687 7 101381794.78607        47.844    25178096.443 7 100093040.98907        47.500
E09  25144837.956 7 132137038.44207        45.750    25144837.080 5 107254066.41505        33.812    25144840.706 6  98673780.21206        38.344    25144841.773 8 101247884.47308        48.344    25144840.124 8  99960825.91408        48.062
E10  26272668.284 7 138063827.87607        42.688                                                    26272672.054 5 103099649.34805        35.656    26272673.724 7 105789198.64307        45.312    26272671.355 7 104444425.57207        44.969
E12  25274942.606 7 132820784.63007        42.969                                                    25274942.673 6  99184382.83906        36.344    25274944.217 7 101771809.74507        45.812    25274942.126 7 100478067.86307        45.562
E14  27861786.236 6 146414820.48406        36.250    27861783.353 3                        20.375    27861786.876 4 109335822.87704        26.375    27861786.977 5 112188058.07805        35.281    27861785.364 5 110761933.56205        35.156
E23  27064947.512 6 142227467.50706        38.469    27064946.225 4 115444278.62604        25.750    27064949.641 5 106208861.11305        31.281    27064951.714 6 108979645.56806        40.906    27064949.528 6 107594188.42006        40.656
E24  26297152.967 6 138192619.41606        39.312                                                    26297154.116 5 103195822.99405        35.344    26297155.348 7 105887944.50507        44.469    26297153.175 7 104541884.32707        44.281
E26  28361583.329 5 149041186.08905        34.156                                                    28361582.314 4 111297020.51804        26.312    28361582.946 5 114200511.26205        35.188    28361581.436 5 112748711.47205        35.062
E31  24820355.563 7 130432010.45007        45.125    24820352.093 5 105870072.88605        32.688    24820356.877 6  97400661.37806        37.500    24820358.811 7  99941506.00707        47.250    24820356.581 7  98671074.26907        46.875
E33  25047641.552 7 131626385.33707        46.156    25047640.153 5                        32.719    25047641.816 6  98292405.84606        38.312    25047643.196 7 100856627.79107        47.562    25047641.189 7  99574561.39507        47.375
G02  25891844.361 5 136062567.41205        31.312
G04  22467217.544 6 118066048.34606        40.500    22467217.173 4        27.938    22467222.619 4  91999533.10204        27.938    22467222.511 7  91999530.10507        42.688    22467221.572 6  88166218.29006        37.000    22467217.744 6 118066023.35006        41.656
G08  21656159.491 7 113803975.66907        47.875    21656158.812 8        49.344    21656164.870 8  88678481.31208        49.344    21656165.899 7  88678494.32407        45.719    21656159.468 6  84983525.53506        41.625
G09  24022302.640 5 126238045.54505        35.125    24022302.113 3        21.375    24022308.100 3  98367330.85003        21.375    24022307.277 4  98367326.89304        26.781    24022303.962 4  94268679.21304        25.656
G10  25729837.922 5 135211204.22805        33.094    25729837.614 3        20.969    25729849.141 3 105359408.55303        20.969
G16  22011687.304 7 115672395.18007        45.750    22011686.361 5        34.406    22011689.043 5  90134397.60205        34.406
G18  24701330.870 5 129806428.39205        34.219    24701330.611 2        12.281    24701333.200 2 101147892.77302        12.281    24701333.472 5 101147894.75305        33.188    24701332.345 5  96933417.48305        30.719    24701330.806 5 129806425.37205        34.469
G21  24244652.945 5 127406513.94405        35.250    24244651.591 3        18.969    24244656.643 3  99277823.27303        18.969
G26  21966716.379 7 115436096.46707        46.375    21966715.798 7        46.500    21966720.998 7  89950341.10507        46.500    21966721.472 7  89950351.11407        43.844    21966715.560 6  86202426.19806        40.438
G27  20940612.564 8 110043809.55608        50.250    20940611.912 9        55.594    20940616.843 9  85748494.85609        55.594    20940617.250 8  85748490.85908        48.562    20940611.579 7  82175622.20807        44.375
G28  23074327.923 7 121256532.88907        42.281    23074327.610 5        30.406    23074332.886 5  94485696.78305        30.406    23074333.485 7  94485714.78407        43.531    23074332.751 6  90548791.40606        36.219    23074327.836 7 121256559.90507        42.844
G31  20841586.186 8 109523422.75208        49.281    20841585.793 8        50.938    20841588.136 8  85343016.33308        50.938    20841588.636 7  85343032.34007        46.594
J03  37586647.710 5 197519209.97405        34.406    37586651.113 6 153911106.30306        37.031    37586646.891 4 147498109.04704        29.062    37586647.848 5 197519206.93705        35.688    37586643.945 5 197519189.27705        35.188
J07                                                                                                                                                                                                  41570561.254 5 218454773.17105        31.906
R05  23908232.641 6 127803196.55806        37.000    23908232.427 6 127803161.56706        36.469    23908244.895 6  99402492.37406        36.656    23908244.748 6  99402502.39106        36.750
R06  23413849.875 4                        26.312
R14  24603937.405 4 131152824.20704        29.781    24603939.623 4 131152841.18504        29.250                                                    24603949.287 4 102007950.93504        29.469
R15  21401101.231 7 114361182.77007        46.688    21401101.472 7 114361224.77707        46.344    21401110.426 7  88947749.26207        43.938    21401110.283 7  88947768.26207        43.906
R16  21123219.904 7 112836543.35407        47.531    21123220.115 7 112836525.35507        47.531    21123228.342 7  87761813.08907        44.438    21123228.253 7  87761811.09307        44.156
R17  22660787.108 6 121262538.87806        39.156    22660787.323 6 121262550.87906        38.562    22660795.834 6  94315498.73706        37.281    22660795.763 6  94315485.75306        37.219
R18  19508408.410 8 104137334.55608        49.188    19508408.526 8 104137341.56108        48.750    19508416.931 8  80995799.31508        48.938    19508417.052 8  80995796.32308        48.625
R19  19898562.262 6 106443937.83806        39.031    19898562.387 6 106443894.85106        37.719    19898571.191 7  82789766.41607        45.188    19898571.518 7  82789814.42107        44.781
> 2025 01 01 00 08 30.0000000  0 60
C02                                                                                                  37512965.914 6 195339844.06506        40.750    37512963.877 7 151049149.12407        44.906    37512964.862 5 158729616.00305        33.844
C03                                                                                                                                                  39722229.486 5                        30.844
C05                                                                                                  36419328.526 7 189645054.43307        46.125    36419328.174 8 146645614.63408        48.281    36419327.182 6 154102163.57906        37.875
C06                                                                                                  40213096.948 6 209400164.06206        37.250    40213099.655 6 161921780.94806        37.250    40213094.442 4                        26.906
C07                                                                                                  39544807.658 5 205920261.14205        33.781    39544806.417 6 159230644.07406        39.531    39544803.024 4 167327069.46404        28.562
C08                                                                                                  40676270.416 4                        29.500    40676268.115 5 163786500.79605        32.250
C09                                                                                                  39751691.315 6 206997703.87106        38.969    39751695.547 6 160063936.95806        41.812    39751690.607 4 168202551.11504        29.719
C10                                                                                                  38480272.934 6 200377112.65406        38.438    38480274.362 7 154944334.20707        42.031    38480268.912 5 162822715.85605        30.719
C13                                                                                                  40454722.987 5                        30.000    40454728.355 5 162894452.99205        31.594
C16                                                                                                  40905855.137 6 213007753.23206        38.000    40905865.442 6 164711242.61006        36.312    40905858.444 4                        24.906
C20  26284564.727 6 138126299.12806        36.812    26284568.501 5 103146256.07205        30.656    26284565.018 6 136870600.80806        39.750                                                    26284564.976 5 111218566.17805        31.406    26284571.709 7 105837033.58207        42.125
C23  26213647.571 6 137753892.71806        36.031    26213646.985 4 102868274.62504        29.594    26213645.778 6 136501577.41906        36.250                                                    26213641.586 4                        27.594    26213647.609 6 105551815.67706        37.469
C27  21489371.643 8 112927535.75108        49.875    21489371.643 7  84329076.30507        42.188    21489370.793 8 111900924.46208        52.188                                                    21489371.498 7  90928707.18307        42.969    21489373.773 8  86528968.49508        51.250
C28  23789266.555 7 125013661.83007        42.312    23789266.721 5  93354474.00305        34.344    23789266.215 7 123877163.56007        44.688                                                    23789266.723 5 100660307.52605        35.500    23789268.923 7  95789807.35307        44.062
C30  23031483.798 7 121031317.05507        47.750    23031486.847 6  90380547.81606        38.750    23031482.930 8 119931048.38708        50.062                                                    23031486.135 6  97453798.11906        39.312    23031488.616 7  92738340.61107        47.500
C32  27321609.083 5                        31.188    27321618.228 4                        27.750    27321607.764 5 142270811.91305        33.594                                                    27321613.468 4                        24.844    27321619.316 5 110012840.85305        35.281
C37  22859015.461 8 120125123.67708        49.125    22859019.825 6  89703966.38006        41.688    22859013.896 8 119033084.36208        50.344                                                    22859019.144 7  96724191.58007        42.000    22859021.831 8  92044077.56208        50.344
C38  40660683.993 4 213673348.29504        25.656                                                    40660686.904 4                        28.188
C39  41685303.944 6 219057747.75506        36.344    41685304.508 4                        24.719    41685302.482 6 217066307.18706        36.969                                                    41685303.643 4                        27.938
C40  40821250.754 5 214517120.62405        31.719                                                    40821251.676 5 212566970.49005        35.156                                                                                                    40821252.729 5 164370267.61705        35.969
C47  25579046.304 6 134418805.43906        39.781                                                    25579046.814 7 133196813.93207        42.906                                                    25579047.965 5 108233335.08305        30.469    25579050.992 6 102996246.87006        38.781
C48  25854099.424 5 135864169.60105        34.219    25854121.630 4 101457084.85404        28.344    25854096.411 5 134629035.99505        34.594                                                    25854101.735 5 109397124.69405        30.906    25854125.483 6 104103795.13106        39.531
C49  26717663.252 6 140402382.53606        36.531                                                    26717663.333 6 139126000.83406        37.406                                                    26717661.789 4 113051318.14904        26.031    26717663.281 5 107581115.79205        35.844
C56                                                                                                  38223440.505 6 199039633.53606        41.281                                                    38223441.880 5 161736011.46105        31.219
C60                                                                                                  37352390.435 7 194503743.53907        47.438                                                    37352376.951 6 158050248.49806        38.594    37352382.008 8 150402609.59708        48.531
E04  26292796.839 6 138169626.68706        40.312    26292797.229 4 112150609.74204        29.062    26292800.492 6 103178661.09506        36.500    26292801.510 7 105870273.93107        45.531    26292799.570 7 104524460.59307        45.344
E05  25498875.080 6 133997497.68706        38.688                                                    25498879.351 5 100063078.28005        32.656    25498880.801 7 102673413.73007        43.000    25498878.451 7 101368249.57707        42.531
E06  25190023.033 7 132374485.97707        43.906    25190021.531 5 107446800.99005        32.438    25190026.611 6  98851100.12406        37.406    25190028.553 7 101429831.12807        47.812    25190026.283 7 100140466.69707        47.281
E09  25152393.834 7 132176743.52307        45.938    25152392.175 5 107286294.50005        33.000    25152396.360 6  98703430.04206        38.375    25152397.588 8 101278307.79808        48.406    25152395.747 8  99990862.49708        48.031
E10  26256691.524 7 137979869.84407        42.656                                                    26256695.208 6 103036953.51806        36.000    26256697.003 7 105724867.25407        45.438    26256694.603 7 104380911.96207        45.094
E12  25262045.993 7 132753013.01007        42.906                                                    25262046.086 6  99133774.21406        36.281    25262047.519 7 101719880.90107        45.719    25262045.584 7 100426799.13107        45.469
E14  27888684.063 6 146556171.44206        36.000    27888682.007 3                        21.406    27888683.983 4 109441377.15404        26.781    27888684.812 5 112296365.95605        35.094    27888683.486 5 110868864.63705        35.094
E16  27636288.464 4 145229676.88414        29.406                                                                                                    27636294.395 5 111279905.61015        34.906
E23  27069701.431 6 142252450.60406        37.969    27069700.662 4 115464557.15704        26.438    27069703.537 5 106227517.27105        31.562    27069705.641 6 108998788.42906        40.750    27069703.733 6 107613087.92606        40.562
E24  26292611.388 6 138168749.65606        40.531                                                    26292611.316 5 103177998.22705        34.875    26292612.883 7 105869654.73007        44.125    26292610.877 7 104523827.05207        43.938
E26  28373016.742 5 149101271.04805        34.250                                                    28373015.522 4 111341889.23304        26.219    28373016.834 5 114246550.42005        35.344    28373015.235 5 112794165.38805        35.250
E31  24820707.875 7 130433861.87707        45.062    24820704.616 5 105871575.68505        33.000    24820709.092 6  97402043.94906        37.344    24820711.437 7  99942924.65907        47.531    24820708.961 7  98672474.88007        47.000
E33  25048418.964 7 131630469.50107        46.156    25048417.069 5                        32.781    25048418.897 6  98295455.74006        38.125    25048420.178 7 100859757.23407        47.375    25048418.346 7  99577651.06307        47.188
G02  25872505.137 5 135960934.10705        32.844
G04  22469070.609 7 118075782.85507        42.125    22469070.247 4        29.562    22469074.799 4  92007118.35904        29.562    22469075.201 7  92007115.35707        42.875    22469073.868 6  88173487.51606        36.500    22469070.537 7 118075757.85907        42.656
G08  21650063.081 7 113771937.96307        47.531    21650062.406 8        49.219    21650068.585 8  88653516.91208        49.219    21650069.591 7  88653529.91707        45.500    21650062.936 6  84959601.33306        40.906
G09  24017058.065 5 126210490.05005        34.281    24017057.529 3        23.062    24017063.426 3  98345859.12003        23.062    24017065.925 5  98345855.15105        31.219    24017060.156 4  94248102.10404        26.344
G10  25721712.320 4 135168508.54104        28.719    25721712.003 2        15.469    25721725.225 2 105326139.14502        15.469    25721723.995 4 105326162.13414        28.969
G16  22010139.852 7 115664260.10307        46.562    22010138.913 5        34.438    22010140.581 5  90128058.60205        34.438
G18  24716239.902 5 129884773.81305        34.656    24716239.652 2        12.969    24716241.923 2 101208941.18702        12.969    24716241.020 5 101208943.20005        32.406    24716241.055 5  96991922.23005        30.781    24716240.227 5 129884770.80805        34.875
G21  24226763.671 6 127312504.08906        36.219    24226762.330 3        18.844    24226767.718 3  99204568.87903        18.844
G26  21968665.683 7 115446338.11207        46.875    21968665.107 7        46.594    21968669.926 7  89958321.61107        46.594    21968669.939 7  89958331.60807        43.000    21968664.577 6  86210074.16706        40.281
G27  20944684.909 8 110065209.26208        50.500    20944684.257 9        55.750    20944689.268 9  85765169.96709        55.750    20944689.662 8  85765165.97308        48.469    20944683.696 7  82191602.51307        44.250
G28  23090879.654 7 121343509.50807        42.875    23090879.328 5        30.219    23090884.134 5  94553470.66305        30.219    23090884.202 7  94553488.67107        42.719    23090884.058 6  90613741.35806        36.344    23090879.706 7 121343536.51007        43.000
G31  20849722.306 8 109566177.27208        49.531    20849721.917 8        51.000    20849724.332 8  85376331.52608        51.000    20849725.061 7  85376347.53407        46.406
J03  37586948.823 5 197520792.89205        34.312    37586952.141 6 153912339.82606        36.938    37586948.093 4 147499291.17204        29.375    37586949.099 5 197520789.91105        35.688    37586945.161 5 197520772.22805        35.562
J07                                                                                                                                                                                                  41570549.116 5 218454703.61005        31.719
R05  23924666.921 6 127891054.22906        37.000    23924667.515 5 127891019.23805        35.625    23924679.662 5  99470826.13405        34.219    23924679.269 5  99470836.13605        35.469
R06  23423276.859 4                        27.125
R14                                                                                                                                                  24615085.879 4 102054130.14704        29.000
R15  21403280.912 7 114372830.44407        47.344    21403281.449 7 114372872.44607        46.531    21403290.711 7  88956808.54507        44.156    21403290.456 7  88956827.55307        44.312
R16  21113189.315 7 112782962.79207        47.656    21113189.530 7 112782944.79507        47.156    21113197.775 7  87720139.34107        44.219    21113197.968 7  87720137.34607        44.094
R17  22682501.726 6 121378736.86806        39.719    22682501.856 6 121378748.90206        38.531    22682510.510 6  94405875.00606        37.625    22682509.982 6  94405862.01106        37.500
R18  19514340.677 8 104169001.79408        48.781    19514340.767 8 104169008.79608        48.750    19514349.207 8  81020429.41308        49.000    19514349.064 8  81020426.41508        48.469
R19  19884839.647 6 106370529.91406        38.625    19884839.204 6 106370486.91606        37.844    19884848.818 7  82732671.40107        46.031    19884848.961 7  82732719.40307        45.719
> 2025 01 01 00 09  0.0000000  0 60
C02                                                                                                  37512871.210 6 195339348.61106        40.938    37512868.811 7 151048766.02307        45.219    37512869.992 5 158729213.42805        34.312
C03                                                                                                                                                  39722096.313 5                        30.656
C05                                                                                                  36419251.480 7 189644653.11207        46.344    36419251.218 8 146645304.31308        48.562    36419250.119 6 154101837.47006        38.281
C06                                                                                                  40218131.839 6 209426386.09206        37.500    40218135.489 6 161942057.48206        37.688    40218129.990 4                        27.375
C07                                                                                                  39547845.084 5 205936072.16105        34.031    39547843.190 6 159242870.17006        40.031    39547838.831 4 167339917.20604        28.719
C08                                                                                                  40665109.581 4                        29.594    40665107.924 5 163741565.11005        32.406
C09                                                                                                  39756178.893 6 207021070.23506        39.188    39756182.696 6 160082005.29606        41.969    39756177.630 5 168221538.18105        30.594
C10                                                                                                  38484109.859 6 200397090.22606        38.594    38484110.152 6 154959782.16606        41.594    38484105.882 5 162838949.25705        30.719
C13                                                                                                  40443864.658 5                        30.188    40443868.604 5 162850721.26305        32.281
C16                                                                                                  40911191.938 6 213035543.74306        38.125    40911201.442 5 164732732.01905        35.875    40911195.912 4                        25.656
C20  26294155.866 6 138176700.40606        36.656    26294159.631 5 103183893.40605        31.469    26294155.821 6 136920543.90006        39.531                                                    26294155.466 5 111259149.01405        31.594    26294162.146 7 105875652.76107        42.031
C23  26224593.423 5 137811414.64705        35.719    26224593.415 4 102911229.23404        29.594    26224591.286 5 136558576.42405        35.281                                                    26224587.135 4                        27.375    26224594.324 6 105595890.81706        37.906
C27  21491434.524 8 112938376.53008        49.750    21491434.421 7  84337171.70807        42.312    21491433.679 8 111911666.69208        52.312                                                    21491434.272 7  90937436.13607        43.125    21491436.703 8  86537275.08508        51.469
C28  23803842.761 7 125090260.55407        42.312    23803842.619 5  93411674.35205        34.375    23803842.181 7 123953065.92907        44.750                                                    23803843.239 5 100721984.43605        35.750    23803845.223 7  95848499.89007        44.062
C30  23018515.333 7 120963167.51907        47.719    23018518.458 6  90329656.99706        38.688    23018514.143 8 119863518.39808        49.750                                                    23018517.799 6  97398924.52106        40.094    23018520.227 8  92686122.19008        48.031
C32  27328121.541 4                        29.188    27328130.976 4                        27.250    27328123.339 5 142304729.31405        32.250                                                    27328127.075 4                        26.062    27328133.245 5 110039068.14305        35.562
C37  22860701.321 8 120133981.89608        49.094    22860705.104 6  89710581.28206        41.875    22860699.680 8 119041862.04808        50.562                                                    22860704.951 7  96731324.17107        42.438    22860707.150 8  92050865.02608        50.344
C38  40650391.387 4 213619249.65304        26.281                                                    40650389.911 4                        29.438
C39  41691038.545 5 219087881.36405        33.094    41691038.505 3                        23.375    41691037.294 5 217096166.86505        33.656                                                    41691037.448 3                        23.438    41691040.877 5 167872547.07515        31.531
C40  40825393.941 5 214538894.00605        30.500                                                    40825395.019 5 212588545.91905        35.312                                                                                                    40825395.754 5 164386951.12905        35.750
C47  25561288.946 6 134325492.68306        39.344                                                    25561290.546 7 133104349.45707        43.625                                                    25561290.804 5 108158200.12405        30.812    25561293.401 6 102924747.50306        38.656
C48  25862475.337 5 135908185.73405        34.688    25862498.478 4 101489954.00504        29.688    25862473.862 6 134672651.93506        36.375                                                    25862478.381 5 109432566.19505        31.312    25862501.319 6 104137521.75206        39.812
C49  26735493.297 6 140496081.41706        36.219    26735490.668 4 104916101.40104        27.000    26735493.499 6 139218847.91106        37.781                                                    26735492.581 4 113126764.02504        27.875    26735493.371 5 107652911.11005        35.781
C56                                                                                                  38225472.952 6 199050215.32806        41.312                                                    38225473.978 5 161744610.02205        31.281
C60                                                                                                  37352146.481 7 194502473.68907        47.469                                                    37352133.007 6 158049216.63906        38.781    37352138.162 8 150401627.67208        48.688
E04  26307599.345 6 138247410.83506        41.500    26307598.451 4 112213746.16604        29.344    26307602.628 6 103236746.58306        36.469    26307603.721 7 105929874.69707        45.531    26307601.446 7 104583303.72007        45.375
E05  25493953.890 6 133971633.14906        40.000                                                    25493957.557 5 100043763.84605        32.844    25493958.480 7 102653595.44607        42.219    25493956.536 7 101348683.21807        42.094
E06  25201981.883 7 132437328.84607        44.438    25201980.233 5 107497809.78005        32.469    25201984.722 6  98898028.18706        36.906    25201986.755 7 101477983.42107        47.094    25201984.945 7 100188006.87807        46.750
E09  25160004.022 7 132216735.46307        46.562    25160002.699 5 107318755.45605        33.188    25160006.320 6  98733294.09806        38.281    25160007.838 8 101308950.92008        48.125    25160006.095 7 100021116.08307        47.906
E10  26240723.427 7 137895957.24907        43.062                                                    26240727.169 6 102974291.61506        36.094    26240728.893 7 105660570.68107        45.188    26240726.506 7 104317432.72107        45.031
E12  25249188.003 7 132685443.62007        43.375                                                    25249188.120 6  99083316.61706        36.312    25249189.477 7 101668107.00807        45.562    25249187.465 7 100375683.38607        45.406
E14  27915515.037 5 146697169.12605        35.938    27915512.105 3                        22.062    27915514.877 4 109546667.71004        26.875    27915515.760 5 112404403.19905        35.031    27915514.361 5 110975528.53305        35.219
E16  27630478.561 4 145199147.44004        29.562                                                                                                    27630483.142 5 111256513.07805        33.312
E23  27074452.539 6 142277417.39106        38.438    27074451.194 4 115484822.35104        26.188    27074454.507 5 106246161.27205        31.781    27074456.651 6 109017918.80206        40.750    27074454.823 6 107631975.11906        40.594
E24  26288055.256 6 138144809.64806        40.562                                                    26288055.444 5 103160120.99305        34.312    26288056.649 7 105851311.11207        43.125    26288055.175 7 104505716.62107        43.094
E26  28384503.201 5 149161631.36205        33.594                                                    28384501.417 4 111386963.52704        25.719    28384503.293 5 114292800.59205        34.562    28384501.340 5 112839827.63605        34.438
E31  24821049.145 7 130435655.29607        45.312    24821045.689 5 105873031.40505        32.781    24821050.688 6  97403383.21506        37.719    24821052.363 7  99944298.85107        47.094    24821050.298 7  98673831.60707        46.875
E33  25049274.650 7 131634966.72607        46.344    25049273.229 5                        33.344    25049274.767 6  98298814.07006        38.406    25049275.730 7 100863203.18107        47.062    25049274.113 7  99581053.20307        47.062
G02  25853139.139 5 135859162.98205        32.844
G04  22471010.230 7 118085976.81807        42.031    22471009.877 5        30.250    22471015.072 5  92015061.66605        30.250    22471014.961 7  92015058.65907        43.344    22471013.725 6  88181099.82406        36.125    22471010.050 7 118085951.84007        42.750
G08  21644029.136 7 113740232.24107        46.125    21644028.457 7        47.844    21644035.249 7  88628811.17907        47.844    21644035.870 7  88628824.19307        45.156    21644029.296 6  84935925.02406        40.250
G09  24011900.026 5 126183381.16905        34.000    24011899.494 4        25.406    24011906.465 4  98324735.32404        25.406    24011906.559 5  98324731.32105        32.688    24011901.644 4  94227858.41204        28.438
G10  25713560.096 5 135125667.17605        30.906    25713559.842 2        17.688    25713572.411 2 105292756.20502        17.688    25713569.925 5 105292779.15805        30.219
G16  22008585.592 7 115656093.39807        46.000    22008584.649 5        34.312    22008586.468 5  90121694.94005        34.312
G18  24731218.546 5 129963488.07205        33.969    24731218.229 2        12.156    24731220.343 2 101270277.05402        12.156    24731220.370 5 101270279.03705        32.531    24731219.748 5  97050702.42605        30.125    24731218.804 5 129963485.06405        34.625
G21  24208872.830 6 127218487.41106        36.438    24208871.485 3        19.719    24208877.485 3  99131309.20703        19.719
G26  21970632.392 7 115456674.60707        46.406    21970631.820 7        46.500    21970637.351 7  89966376.02007        46.500    21970637.677 7  89966386.02207        43.906    21970631.134 6  86217792.97906        40.250
G27  20948812.986 8 110086903.83908        50.125    20948812.334 9        55.375    20948817.408 9  85782074.85009        55.375    20948817.797 8  85782070.85608        48.375    20948812.252 7  82207803.02507        44.406
G28  23107487.762 7 121430787.68807        42.000    23107487.441 5        30.312    23107492.819 5  94621479.54705        30.312    23107493.047 7  94621497.55007        43.125    23107493.037 6  90678916.51706        36.719    23107487.675 7 121430814.69507        42.594
G31  20857954.278 8 109609438.35408        48.719    20857953.889 8        50.625    20857956.652 8  85410041.44108        50.625    20857956.961 7  85410057.45007        46.312
J03  37587287.352 5 197522573.80105        33.656    37587290.844 6 153913727.55706        36.688    37587287.373 4 147500621.08004        29.781    37587287.878 5 197522570.80705        35.062    37587284.097 5 197522553.13805        35.000
J07                                                                                                                                                                                                  41570535.580 5 218454635.16505        31.500
R05  23941061.512 6 127978690.76406        36.875    23941061.950 5 127978655.77605        35.656    23941074.169 5  99538987.89605        33.469    23941073.928 5  99538997.87405        34.125
R06  23432769.161 4                        26.219
R14  24626271.410 4                        28.188                                                                                                    24626274.398 4                        28.438
R15  21405513.147 7 114384755.16807        47.469    21405513.321 7 114384797.16907        46.844    21405521.698 7  88966083.31107        44.125    21405521.631 7  88966102.31207        43.625
R16  21103165.869 7 112729415.18907        47.938    21103165.928 7 112729397.19307        47.625    21103173.739 7  87678491.23007        44.469    21103173.735 7  87678489.23207        44.500
R17  22704273.332 6 121495244.68406        39.500    22704274.347 6 121495256.70006        38.500    22704282.836 6  94496492.19106        37.344    22704282.241 6  94496479.20006        38.094
R18  19520419.872 8 104201453.25408        48.844    19520419.961 8 104201460.25108        48.625    19520428.545 8  81045669.45408        48.875    19520428.361 8  81045666.45708        48.562
R19  19871242.163 6 106297797.53506        38.156    19871242.459 6 106297754.53606        37.219    19871251.576 7  82676101.80107        45.281    19871252.005 7  82676149.80207        45.312
> 2025 01 01 00 09 30.0000000  0 60
C02                                                                                                  37512774.099 6 195338844.97206        41.062    37512772.249 7 151048376.57507        45.688    37512773.033 5 158728804.20805        34.094
C03                                                                                                                                                  39721960.258 5 159943887.33405        31.031
C05                                                                                                  36419173.015 7 189644244.32907        46.406    36419172.507 8 146644988.22408        48.781    36419171.386 6 154101505.32106        38.094
C06                                                                                                  40223182.499 6 209452685.03506        37.625    40223185.524 6 161962393.49806        37.781    40223180.463 4                        26.031
C07                                                                                                  39550867.323 5 205951812.10905        34.250    39550865.366 6 159255041.30606        40.406    39550861.973 4 167352707.20604        28.656
C08                                                                                                  40653943.666 4                        29.094    40653941.490 5 163696602.93205        32.344
C09                                                                                                  39760683.747 6 207044527.26206        39.438    39760687.353 7 160100143.72607        42.094    39760682.073 5 168240598.87005        30.000
C10                                                                                                  38487934.531 6 200417007.17706        38.938    38487934.667 6 154975183.25006        41.625    38487930.397 5 162855133.47805        30.562
C13                                                                                                  40432992.855 5                        30.969    40432996.948 5 162806948.11905        33.250
C16                                                                                                  40916542.037 6 213063403.64706        37.688    40916551.850 6 164754275.03806        36.031    40916546.077 4                        24.750
C20  26303722.002 6 138226969.65506        37.031    26303725.772 5 103221432.09805        31.594    26303722.315 6 136970356.15606        40.594                                                    26303721.674 5 111299625.49205        31.562    26303728.595 7 105914170.73707        42.062
C23  26235577.024 5 137869134.12705        34.750    26235577.230 5 102954331.33305        30.125    26235573.885 5 136615771.19905        33.344                                                    26235571.509 4                        27.406    26235578.158 6 105640117.31706        37.344
C27  21493584.653 8 112949675.76508        49.750    21493584.671 7  84345609.47307        42.406    21493583.849 8 111922863.20708        52.406                                                    21493584.406 7  90946534.23007        42.969    21493586.860 8  86545932.95908        51.281
C28  23818464.166 7 125167095.27607        42.531    23818463.656 5  93469050.97205        34.094    23818462.999 7 124029202.15607        44.469                                                    23818464.406 5 100783851.38105        35.438    23818466.592 7  95907373.26507        43.844
C30  23005609.214 7 120895345.72707        47.969    23005612.111 6  90279010.91406        38.438    23005607.962 8 119796313.17708        49.875                                                    23005611.958 6  97344314.81006        40.000    23005614.314 8  92634154.90008        48.188
C32  27334571.385 4                        28.844    27334579.032 4                        25.438    27334571.135 5 142338310.03705        32.312                                                    27334575.422 4                        24.844    27334581.154 5 110065035.08205        32.500
C37  22862433.748 8 120143085.69108        49.375    22862437.222 6  89717379.58406        41.812    22862432.160 8 119050883.08308        50.594                                                    22862437.149 7  96738654.50007        42.125    22862439.250 8  92057840.65708        50.094
C38  40640099.311 4 213565169.68104        24.500                                                    40640100.545 5                        30.562
C39  41696781.708 6 219118062.65406        36.750    41696782.482 4                        28.219    41696780.689 6 217126073.76206        37.531                                                    41696781.050 4                        29.125    41696784.335 6 167895673.02206        37.188
C40  40829519.427 5 214560572.02805        31.500                                                    40829518.149 5 212610026.93005        34.094                                                                                                    40829520.655 5 164403561.62205        35.375
C47  25543557.597 6 134232311.59106        39.750                                                    25543558.120 7 133012015.44407        43.000                                                    25543559.263 5 108083171.20805        30.469    25543562.598 6 102853348.96906        39.344
C48  25870849.084 5 135952188.26505        35.500    25870871.778 4 101522812.99104        29.656    25870847.658 6 134716254.44506        38.188                                                    25870850.370 5 109467996.77805        30.531    25870874.633 6 104171237.95806        39.062
C49  26753329.794 6 140589812.38006        36.156    26753326.829 4 104986095.31604        26.219    26753328.041 6 139311726.80106        36.031                                                    26753329.023 4 113202235.75204        26.562    26753329.532 5 107724730.97005        35.188
C56                                                                                                  38227488.315 6 199060712.62906        41.406                                                    38227490.567 5 161753139.99905        31.094
C60                                                                                                  37351901.538 7 194501198.46507        47.625                                                    37351888.063 6 158048180.42706        38.812    37351893.259 8 150400641.60308        48.656
E04  26322396.864 6 138325177.87706        40.125    26322397.858 4 112276868.72304        29.281    26322401.188 6 103294819.31706        36.344    26322403.011 7 105989462.36807        46.125    26322400.128 7 104642133.91907        45.656
E05  25489099.666 6 133946123.53506        39.781                                                    25489102.939 5 100024714.44805        32.938    25489103.554 7 102634049.16007        42.219    25489102.401 7 101329385.38307        42.062
E06  25213967.766 7 132500316.09807        44.000    25213966.846 5 107548935.76205        32.688    25213970.959 6  98945064.05006        37.125    25213972.960 7 101526246.32507        47.344    25213971.106 7 100235656.26407        46.875
E09  25167667.581 7 132257007.61207        46.125    25167666.437 5 107351443.83505        33.906    25167670.470 6  98763367.40006        38.812    25167671.626 8 101339808.75208        48.469    25167669.660 8 100051581.65108        48.188
E10  26224763.319 7 137812087.18107        42.688                                                    26224767.169 6 102911661.45106        36.375    26224768.956 7 105596306.67507        45.688    26224766.471 7 104253985.63707        45.375
E12  25236368.057 7 132618073.54407        43.469                                                    25236368.003 6  99033007.82906        36.625    25236369.454 7 101616485.83907        46.000    25236367.323 7 100324718.41407        45.719
E14  27942277.683 6 146837807.08006        36.094    27942275.305 3                        19.844    27942277.559 4 109651689.59504        26.969    27942278.518 5 112512164.74805        35.719    27942276.963 5 111081920.23705        35.531
E16  27624655.662 4 145168553.04804        28.875                                                                                                    27624660.015 5 111233070.70405        31.469
E23  27079200.471 6 142302363.81006        38.812    27079199.372 4 115505070.96904        24.812    27079201.831 5 106264790.03405        31.594    27079203.822 6 109037033.55906        41.031    27079201.990 6 107650846.87806        40.750
E24  26283484.756 6 138120793.98406        39.344                                                    26283485.239 5 103142187.23505        34.188    26283486.779 7 105832909.52707        43.312    26283485.019 7 104487548.95807        43.094
E26  28396040.903 5 149222260.67505        34.094                                                    28396039.606 4 111432238.74804        25.906    28396040.637 5 114339256.86605        35.094    28396038.724 5 112885693.37805        34.844
E31  24821378.510 7 130437386.08407        45.281    24821375.479 5 105874436.28505        32.781    24821380.013 6  97404675.69106        38.000    24821381.334 7  99945625.05507        47.094    24821379.587 7  98675140.94807        46.906
E33  25050208.011 7 131639872.26407        45.938    25050206.809 5                        33.062    25050208.132 6  98302477.33206        38.125    25050208.993 7 100866961.99707        47.219    25050207.549 7  99584764.24007        47.031
G02  25833745.827 5 135757251.34105        33.406    25833745.876 1         9.594    25833748.080 1 105784879.25211         9.594
G04  22473036.013 6 118096623.84006        41.969    22473035.665 5        30.344    22473041.079 5  92023357.98005        30.344    22473041.146 7  92023354.97307        43.125    22473040.063 6  88189050.43206        36.625    22473035.841 7 118096598.84407        42.875
G08  21638058.061 7 113708852.92007        45.875    21638057.382 7        47.375    21638063.807 7  88604359.79307        47.375    21638064.795 7  88604372.79507        45.125    21638057.877 6  84912492.47506        40.062
G09  24006825.659 5 126156713.76505        35.094    24006825.136 4        26.969    24006831.566 4  98303955.53004        26.969    24006832.013 5  98303951.53005        33.812    24006826.490 4  94207944.42404        28.719
G10  25705379.494 5 135082677.65605        32.094    25705379.199 3        22.625    25705389.729 3 105259257.80403        22.625    25705389.398 5 105259280.80105        30.656
G16  22007024.481 7 115647890.65007        45.750    22007023.538 5        34.750    22007026.081 5  90115303.21205        34.750
G18  24746266.498 5 130042564.10605        34.375    24746266.163 2        12.531    24746267.410 2 101331894.77802        12.531    24746267.178 5 101331896.75605        32.156    24746267.396 5  97109752.75105        30.156    24746266.260 5 130042561.09205        34.906
G21  24190980.459 6 127124460.85306        36.406    24190979.140 3        20.375    24190984.733 3  99058041.84603        20.375
G26  21972616.499 7 115467102.20507        46.062    21972615.918 7        46.625    21972621.789 7  89974501.41807        46.625    21972621.972 7  89974511.42307        44.281    21972615.595 6  86225579.82006        40.500
G27  20952996.389 8 110108886.48808        50.062    20952995.732 9        55.531    20953000.378 9  85799204.19809        55.531    20953000.856 8  85799200.20308        48.594    20952995.395 7  82224218.65007        44.719
G28  23124153.011 7 121518360.76807        42.906    23124152.667 5        30.250    23124157.607 5  94689718.21605        30.250    23124158.126 7  94689736.21907        43.438    23124157.973 6  90744311.89206        36.875    23124153.184 7 121518387.76607        43.156
G31  20866282.164 8 109653200.75108        48.844    20866281.775 8        50.625    20866283.984 8  85444141.99208        50.625    20866284.431 7  85444158.00007        46.219
J03  37587663.106 5 197524547.52405        34.250    37587666.039 6 153915265.54706        36.531    37587663.042 4 147502095.03004        29.062    37587663.029 5 197524544.51605        35.094    37587659.904 5 197524526.84505        35.031
J07                                                                                                                                                                                                  41570520.774 5 218454562.94305        31.844
R05  23957413.363 6 128066097.38606        36.312    23957413.984 6 128066062.40006        36.094    23957425.062 5  99606970.76905        32.469    23957424.794 5  99606980.77305        33.344
R06  23442317.193 3                        23.406
R14  24637500.624 5                        32.062    24637501.706 5                        31.938                                                    24637511.003 5                        30.750
R15  21407795.350 7 114396953.54207        46.844    21407795.605 7 114396995.54607        46.500    21407804.138 7  88975570.90107        43.500    21407804.581 7  88975589.89307        43.500
R16  21093146.603 7 112675897.78007        47.625    21093146.970 7 112675879.78107        47.344    21093154.934 7  87636866.61107        44.375    21093154.875 7  87636864.60007        44.000
R17  22726102.277 6 121612053.02806        38.438    22726102.541 6 121612065.01706        38.469    22726111.870 6  94587343.15406        37.438    22726111.892 6  94587330.16306        38.094
R18  19526644.754 8 104234681.92408        49.094    19526644.933 8 104234688.92708        48.781    19526653.356 8  81071514.01108        49.031    19526653.141 8  81071511.00208        48.656
R19  19857771.704 6 106225738.62406        38.656    19857771.780 6 106225695.61806        37.500    19857780.942 7  82620056.03707        45.094    19857781.322 7  82620104.02107        45.125
> 2025 01 01 00 10  0.0000000  0 60
C02                                                                                                  37512677.574 6 195338341.07106        40.688    37512675.304 7 151047986.94407        45.562    37512676.441 5 158728394.74205        34.000
C03                                                                                                                                                  39721825.577 5 159943344.92205        31.031
C05                                                                                                  36419094.538 7 189643835.95007        46.156    36419094.151 8 146644672.44908        48.750    36419093.150 6 154101173.48806        38.062
C06                                                                                                  40228249.187 6 209479068.65506        37.844    40228252.458 6 161982794.96706        37.938    40228248.474 4                        26.281
C07                                                                                                  39553877.471 5 205967488.73505        34.125    39553876.038 6 159267163.49206        40.281    39553871.987 4 167365445.78004        28.719
C08                                                                                                  40642773.659 4                        28.312    40642770.934 5 163651621.07805        33.562
C09                                                                                                  39765207.513 6 207068082.64506        39.531    39765210.882 7 160118358.21807        42.219    39765205.665 5 168259739.56405        30.500
C10                                                                                                  38491749.812 6 200436871.22606        38.906    38491749.694 6 154990543.41006        41.656    38491745.536 5 162871274.64605        30.656
C13                                                                                                  40422112.663 4                        29.875    40422116.202 5 162763140.20305        32.938
C16                                                                                                  40921906.298 6 213091340.45406        37.312    40921915.681 5 164775877.60505        35.938    40921910.464 4                        25.344
C20  26313263.362 6 138277112.74706        36.531    26313267.986 5 103258876.57805        33.062    26313264.592 6 137020043.42506        41.062                                                    26313263.463 5 111340000.44505        31.438    26313269.678 7 105952592.08407        42.125
C23  26246600.271 5 137927059.20805        35.125    26246599.668 5 102997586.95405        30.125    26246595.844 5 136673169.61805        32.125                                                    26246594.251 4                        27.250    26246601.132 6 105684501.38406        38.188
C27  21495823.460 8 112961440.66908        49.594    21495823.465 7  84354394.97207        42.469    21495822.790 8 111934521.15808        52.188                                                    21495823.150 7  90956007.28507        42.875    21495825.605 8  86554947.65508        51.469
C28  23833130.775 6 125244171.79806        41.938    23833131.258 5  93526608.09905        34.000    23833130.310 7 124105577.97307        44.156                                                    23833131.292 5 100845913.01305        35.500    23833134.336 7  95966431.91707        44.156
C30  22992767.054 7 120827861.11507        47.406    22992769.906 6  90228616.63406        38.531    22992765.833 8 119729442.06308        49.344                                                    22992770.021 6  97289976.59406        40.156    22992772.690 8  92582445.96708        49.000
C32  27340956.540 5 143677697.02415        34.031    27340964.732 5                        30.094    27340956.254 6 142371561.67906        37.188                                                    27340961.497 4                        28.969    27340966.268 6 110090747.54106        38.906
C37  22864214.817 8 120152444.29208        49.344    22864218.372 6  89724368.13406        41.844    22864212.733 8 119060156.60708        50.250                                                    22864217.700 6  96746189.99906        41.906    22864220.310 8  92065011.52408        50.312
C38  40629816.175 3                        20.781                                                    40629818.541 5                        31.906
C39  41702535.313 5 219148298.91905        32.844    41702535.926 4                        24.281    41702534.200 5 217156035.15005        34.375                                                    41702534.793 4                        24.844    41702538.294 5 167918841.18005        33.031
C40  40833627.028 5 214582162.56005        30.438                                                    40833626.930 5 212631421.15605        33.812                                                                                                    40833629.364 5 164420105.02105        35.656
C47  25525853.151 6 134139272.02906        40.594                                                    25525853.012 7 132919821.71807        42.781                                                    25525854.951 5 108008256.20405        30.938    25525858.304 6 102782058.90406        40.125
C48  25879220.113 5 135996182.96705        34.844    25879243.522 4 101555666.16604        29.438    25879219.313 6 134759849.21106        37.312                                                    25879222.759 5 109503421.05005        30.938    25879245.689 6 104204948.18706        38.281
C49  26771174.045 5 140683581.51705        34.969    26771170.566 4 105056117.80304        26.031    26771169.542 5 139404643.51905        33.562                                                    26771172.416 4 113277738.23904        25.188    26771173.032 5 107796580.13005        34.594
C56                                                                                                  38229489.710 6 199071133.39306        41.188                                                    38229491.461 5 161761607.71305        31.156
C60                                                                                                  37351657.190 7 194499925.83907        47.375                                                    37351643.662 6 158047146.31006        38.812    37351648.853 8 150399657.52908        48.906
E04  26337194.393 6 138402933.96806        41.000    26337194.188 4 112339982.35304        29.594    26337197.510 5 103352883.85905        35.906    26337199.032 7 106049041.66907        45.688    26337196.726 7 104700955.84207        45.281
E05  25484314.095 6 133920977.16606        39.312                                                    25484317.319 5 100005936.36005        31.969    25484319.396 7 102614781.16807        42.656    25484317.242 7 101310362.33007        42.094
E06  25225982.095 7 132563453.72607        43.312    25225981.818 5 107600183.79205        33.125    25225986.388 6  98992212.23906        37.531    25225987.780 7 101574624.48407        47.188    25225985.895 7 100283419.44107        46.844
E09  25175385.369 7 132297566.34507        45.156    25175384.739 5 107384364.84705        33.719    25175388.392 6  98793654.70706        38.500    25175389.548 7 101370886.17307        47.969    25175387.631 7 100082264.02107        47.688
E10  26208813.189 7 137728269.76307        42.625                                                    26208817.039 6 102849070.59206        36.250    26208818.825 7 105532083.00407        45.531    26208816.456 7 104190578.37407        45.219
E12  25223587.596 7 132550912.90507        43.469                                                    25223587.712 6  98982855.48406        36.562    25223589.096 7 101565025.15107        45.875    25223587.027 7 100273911.89607        45.594
E14  27968972.746 5 146978092.23405        35.688    27968970.283 3                        20.969    27968973.373 4 109756448.00304        26.281    27968974.072 5 112619655.97205        35.594    27968972.262 5 111188045.06405        35.312
E16  27618822.984 4 145137900.99604        29.156                                                                                                    27618829.846 5 111209584.11405        32.469
E23  27083945.412 6 142327298.71206        39.031    27083942.748 4 115525310.30504        24.594    27083947.214 5 106283410.25105        31.625    27083949.171 6 109056139.47406        41.000    27083946.981 6 107669709.93506        40.719
E24  26278902.349 6 138096710.26306        39.969                                                    26278902.241 5 103124202.68005        33.500    26278904.193 7 105814455.80407        43.469    26278901.914 7 104469329.82207        43.031
E26  28407630.718 5 149283165.60305        33.562                                                    28407629.090 4 111477719.72204        25.906    28407630.009 5 114385924.35305        34.781    28407628.490 5 112931767.61605        34.594
E31  24821697.645 7 130439062.62807        45.344    24821693.572 5 105875797.12805        32.156    24821699.273 6  97405927.67106        37.688    24821700.223 7  99946909.68407        46.875    24821698.565 7  98676409.25507        46.688
E33  25051220.458 7 131645194.40307        45.844    25051219.278 5                        32.594    25051220.945 6  98306451.67506        37.844    25051221.735 7 100871040.02307        46.969    25051220.327 7  99588790.42507        46.781
G02  25814327.797 5 135655209.46205        33.562    25814327.247 1        10.656    25814330.341 1 105705366.25801        10.656
G04  22475149.507 7 118107730.38807        43.125    22475149.159 5        30.625    22475154.260 5  92032012.36505        30.625    22475154.578 7  92032009.36007        42.531    22475153.888 6  88197344.22106        37.188    22475149.497 7 118107705.38307        44.094
G08  21632149.966 7 113677807.40507        46.156    21632149.291 7        47.156    21632155.922 7  88580168.51907        47.156    21632156.744 7  88580181.52907        44.719    21632150.188 6  84889309.17806        40.344
G09  24001835.333 5 126130495.87005        33.281    24001834.806 4        26.406    24001842.223 4  98283526.01504        26.406    24001843.686 5  98283522.02805        34.500    24001837.384 4  94188366.11204        28.875
G10  25697171.312 4 135039550.16204        29.812    25697171.022 2        17.688    25697181.972 2 105225651.92002        17.688    25697181.207 4 105225674.93404        27.688
G16  22005458.862 7 115639660.38107        46.438    22005457.928 5        35.031    22005459.752 5  90108890.03005        35.031
G18  24761384.585 5 130122007.68405        34.312    24761384.268 2        12.469    24761385.103 2 101393798.91502        12.469    24761384.665 5 101393800.90805        32.125    24761384.914 5  97169077.58105        30.562    24761384.047 5 130122004.68805        34.719
G21  24173087.668 6 127030434.57006        36.656    24173086.354 3        20.219    24173091.973 3  98984774.70103        20.219
G26  21974619.746 7 115477630.09307        46.156    21974619.170 7        46.719    21974624.981 7  89982704.95907        46.719    21974624.816 7  89982714.96007        43.844    21974619.422 6  86233441.54706        40.500
G27  20957235.407 8 110131163.34908        49.938    20957234.755 9        55.219    20957239.467 9  85816562.79809        55.219    20957239.932 8  85816558.80908        48.312    20957234.408 7  82240853.98107        44.594
G28  23140875.206 7 121606234.87707        43.000    23140874.853 5        30.000    23140879.481 5  94758191.43705        30.000    23140879.329 7  94758209.45007        42.656    23140880.061 6  90809932.03306        36.875    23140875.218 7 121606261.89407        43.375
G31  20874706.853 8 109697471.90708        49.250    20874706.460 8        50.688    20874708.414 8  85478638.97608        50.688    20874709.031 7  85478654.98107        46.312
J03  37588076.744 5 197526721.84005        34.000    37588080.388 6 153916959.85006        36.781    37588076.792 4 147503718.73704        29.312    37588076.269 5 197526718.85605        35.219    37588072.344 5 197526701.18605        34.219
J07                                                                                                                                                                                                  41570507.828 5 218454494.96805        32.156
R05  23973722.501 5 128153279.51305        35.562    23973722.724 5 128153244.52405        34.875    23973735.520 5  99674779.07705        33.219    23973735.023 5  99674789.06805        34.312
R06  23451920.691 4                        24.562
R14  24648784.486 5 131391907.70215        35.719    24648786.731 5 131391908.71215        34.969    24648794.802 4 102193731.50914        28.719    24648793.219 4 102193888.53404        27.344
R15  21410131.218 7 114409436.23107        46.406    21410131.554 7 114409478.22707        46.312    21410140.006 7  88985279.61107        43.875    21410139.228 7  88985298.60907        43.562
R16  21083135.753 7 112622420.81707        47.625    21083136.200 7 112622402.81307        47.406    21083144.495 7  87595273.41907        44.812    21083144.151 7  87595271.42507        44.562
R17  22747986.778 6 121729165.91406        37.969    22747987.252 6 121729177.92606        37.750    22747996.608 6  94678430.99306        37.219    22747997.180 6  94678417.99106        38.031
R18  19533016.262 8 104268694.11308        49.156    19533016.651 8 104268701.11508        49.125    19533024.899 8  81097967.93708        48.875    19533024.528 8  81097964.94208        48.438
R19  19844428.803 6 106154364.54106        38.000    19844429.138 6 106154321.53506        37.312    19844438.501 7  82564542.88007        45.531    19844438.926 7  82564590.88707        45.406
